Message Id[unsigned short|#],Timestamp[unsigned long|epoch],Latitude[double|°],Longitude[double|°],Mission Time[unsigned long|tod],Depth[float|Meters],Heading[float|°],Pitch[float|°],Roll[float|°],Altitude[float|Meters],Altitude Track Range Beam 1[float|Meters],Altitude Track Range Beam 2[float|Meters],Altitude Track Range Beam 3[float|Meters],Altitude Track Range Beam 4[float|Meters],Forward Velocity[float|m/s],Starboard Velocity[float|m/s],Vertical Velocity[float|m/s],Error Velocity[float|mm/s],Temperature[float|°C],Ensemble[unsigned short|#],Binary Velocity Data 1[short|mm/s],Binary Velocity Data 2[short|mm/s],Binary Velocity Data 3[short|mm/s],Binary Velocity Data 4[short|mm/s],Coordinates Transformation[short|mask],Average Current[float|m/s],Average Direction[float|°]
1141,1569845686,39.9207,-70.7643,44086766,0.01,63.91,0.80,3.02,0.00,0.00,0.00,0.00,0.00,-32.77,-32.77,-32.77,-32.77,23.03,110,-32768,-32768,-32768,-32768,23,0.00,0.00
1141,1569845688,39.9207,-70.7643,44088083,-0.08,55.25,-9.21,-9.08,0.00,0.00,0.00,0.00,0.00,-32.77,-32.77,-32.77,-32.77,23.05,111,-286,-76,-380,257,-32745,0.00,0.00
1141,1569845689,39.9207,-70.7643,44089333,0.15,59.40,4.85,-9.97,0.00,0.00,0.00,0.00,0.00,-32.77,-32.77,-32.77,-32.77,23.04,112,95,-324,-264,-32768,23,0.00,0.00
1141,1569845690,39.9207,-70.7643,44090633,0.09,59.42,0.93,19.16,0.00,0.00,0.00,0.00,0.00,-32.77,-32.77,-32.77,-32.77,23.01,113,-32,196,79,-167,-32745,0.00,0.00
1141,1569845691,39.9207,-70.7643,44091883,-0.07,63.01,-1.06,-9.28,0.00,0.00,0.00,0.00,29.10,-32.77,-32.77,-32.77,-32.77,23.07,114,-404,155,-327,44,23,0.00,0.00
1141,1569845693,39.9207,-70.7643,44093199,0.02,60.84,-6.08,7.70,0.00,0.00,0.00,0.00,0.00,-32.77,-32.77,-32.77,-32.77,23.04,115,-470,437,161,442,-32745,0.00,0.00
1141,1569845694,39.9207,-70.7643,44094516,0.04,62.72,0.33,2.15,0.00,0.00,0.00,0.00,0.00,-32.77,-32.77,-32.77,-32.77,23.06,116,-32768,-32768,-32768,-32768,23,0.00,0.00
1141,1569845695,39.9207,-70.7643,44095766,0.18,63.84,4.74,-13.49,0.00,0.00,0.00,0.00,0.00,-32.77,-32.77,-32.77,-32.77,23.03,117,337,31,465,232,-32745,0.00,0.00
1141,1569845697,39.9207,-70.7643,44097083,0.14,60.56,-0.73,20.58,0.00,0.00,0.00,0.00,0.00,-32.77,-32.77,-32.77,-32.77,23.04,118,593,140,96,-32768,23,0.00,0.00
1141,1569845698,39.9207,-70.7643,44098333,-0.04,59.88,-3.46,-11.92,0.00,0.00,0.00,0.00,0.00,-32.77,-32.77,-32.77,-32.77,23.07,119,-432,-66,-378,-168,-32745,0.00,0.00
1141,1569845699,39.9207,-70.7643,44099633,0.20,57.16,-0.93,15.76,0.00,0.00,0.00,0.00,0.00,-32.77,-32.77,-32.77,-32.77,23.06,120,284,-324,236,-32768,23,0.00,0.00
1141,1569845700,39.9207,-70.7643,44100883,0.06,60.89,-5.03,-10.27,0.00,0.00,0.00,0.00,0.00,-32.77,-32.77,-32.77,-32.77,23.06,121,-55,11,304,331,-32745,0.00,0.00
1141,1569845702,39.9207,-70.7644,44102199,0.17,52.92,2.44,22.05,0.00,0.00,0.00,0.00,0.00,-32.77,-32.77,-32.77,-32.77,23.05,122,204,-30,-116,-90,23,0.00,0.00
1141,1569845703,39.9207,-70.7643,44103449,-0.03,57.32,-3.22,-16.95,0.00,0.00,0.00,0.00,0.00,-32.77,-32.77,-32.77,-32.77,23.10,123,-83,-373,-172,30,-32745,0.00,0.00
1141,1569845704,39.9207,-70.7643,44104766,0.17,53.81,-5.19,22.68,0.00,0.00,0.00,0.00,0.00,-32.77,-32.77,-32.77,-32.77,23.11,124,-8,-38,-227,-162,23,0.00,0.00
1141,1569845706,39.9207,-70.7643,44106083,-0.00,52.41,1.33,0.04,0.00,0.00,0.00,0.00,0.00,-32.77,-32.77,-32.77,-32.77,23.09,125,118,-4,-268,234,-32745,0.00,0.00
1141,1569845707,39.9207,-70.7643,44107333,0.23,49.75,-0.89,-3.90,0.00,0.00,0.00,0.00,0.00,-32.77,-32.77,-32.77,-32.77,23.04,126,-52,151,-75,-72,23,0.00,0.00
1141,1569845708,39.9207,-70.7643,44108633,0.09,49.18,-0.46,17.80,0.00,0.00,0.00,0.00,0.00,-32.77,-32.77,-32.77,-32.77,23.06,127,177,-92,-144,69,-32745,0.00,0.00
1141,1569845709,39.9207,-70.7643,44109883,0.03,51.45,3.52,-20.62,0.00,0.00,0.00,0.00,0.00,-32.77,-32.77,-32.77,-32.77,23.11,128,-22,-107,-139,87,23,0.00,0.00
1141,1569845711,39.9207,-70.7643,44111199,0.18,48.65,0.54,8.85,0.00,0.00,0.00,0.00,0.00,-32.77,-32.77,-32.77,-32.77,23.10,129,517,393,24,-277,-32745,0.00,0.00
1141,1569845712,39.9207,-70.7643,44112449,0.08,51.65,-6.58,-2.85,0.00,0.00,0.00,0.00,0.00,-32.77,-32.77,-32.77,-32.77,23.10,130,-65,288,-152,90,23,0.00,0.00
1141,1569845713,39.9207,-70.7643,44113766,0.23,48.77,0.99,-10.83,0.00,0.00,0.00,0.00,0.00,-32.77,-32.77,-32.77,-32.77,23.11,131,86,231,30,38,-32745,0.00,0.00
1141,1569845715,39.9208,-70.7643,44115016,0.32,51.58,-2.37,11.11,0.00,0.00,0.00,0.00,0.00,-32.77,-32.77,-32.77,-32.77,23.07,132,209,373,397,30,23,0.00,0.00
1141,1569845716,39.9208,-70.7643,44116333,0.23,54.71,-2.58,-8.14,0.00,0.00,0.00,0.00,0.00,-32.77,-32.77,-32.77,-32.77,23.12,133,-91,284,238,-307,-32745,0.00,0.00
1141,1569845717,39.9208,-70.7642,44117583,0.22,52.36,1.35,-5.79,0.00,0.00,0.00,0.00,0.00,-32.77,-32.77,-32.77,-32.77,23.11,134,194,542,67,194,23,0.00,0.00
1141,1569845718,39.9208,-70.7642,44118883,0.24,53.14,3.29,-3.09,0.00,0.00,0.00,0.00,0.00,-32.77,-32.77,-32.77,-32.77,23.13,135,238,717,178,84,-32745,0.00,0.00
1141,1569845720,39.9208,-70.7642,44120199,0.12,53.32,-2.56,-9.30,0.00,0.00,0.00,0.00,0.00,-32.77,-32.77,-32.77,-32.77,23.11,136,-90,1220,-129,-32768,23,0.00,0.00
1141,1569845721,39.9208,-70.7642,44121449,0.20,57.24,-4.82,23.99,0.00,0.00,0.00,0.00,0.00,-32.77,-32.77,-32.77,-32.77,23.11,137,242,-72,-199,641,-32745,0.00,0.00
1141,1569845722,39.9208,-70.7641,44122766,0.03,59.78,-10.11,2.52,0.00,0.00,0.00,0.00,0.00,-32.77,-32.77,-32.77,-32.77,23.12,138,-440,1516,233,3,23,0.00,0.00
1141,1569845724,39.9208,-70.7641,44124016,0.18,62.30,-0.64,-9.96,0.00,0.00,0.00,0.00,0.00,-32.77,-32.77,-32.77,-32.77,23.13,139,357,1706,-309,-301,-32745,0.00,0.00
1141,1569845725,39.9209,-70.7640,44125333,0.05,62.82,-3.07,8.75,0.00,0.00,0.00,0.00,0.00,-32.77,-32.77,-32.77,-32.77,23.09,140,252,1178,74,27,23,0.00,0.00
1141,1569845726,39.9209,-70.7640,44126583,0.12,70.66,-4.65,12.76,0.00,0.00,0.00,0.00,0.00,-32.77,-32.77,-32.77,-32.77,23.14,141,542,1415,-492,-472,-32745,0.00,0.00
1141,1569845727,39.9209,-70.7640,44127883,-0.01,64.42,0.36,-2.66,0.00,0.00,0.00,0.00,0.00,-32.77,-32.77,-32.77,-32.77,23.09,142,-339,1324,-133,64,23,0.00,0.00
1141,1569845729,39.9209,-70.7639,44129133,0.16,72.20,-4.68,1.53,0.00,0.00,0.00,0.00,0.00,-32.77,-32.77,-32.77,-32.77,23.12,143,82,-185,-343,78,-32745,0.00,0.00
1141,1569845730,39.9209,-70.7639,44130449,-0.00,69.90,-2.75,16.92,0.00,0.00,0.00,0.00,0.00,-32.77,-32.77,-32.77,-32.77,23.12,144,265,1513,-250,40,23,0.00,0.00
1141,1569845731,39.9209,-70.7638,44131766,0.08,76.52,-8.26,-7.22,0.00,0.00,0.00,0.00,0.00,-32.77,-32.77,-32.77,-32.77,23.11,145,-266,-156,-423,161,-32745,0.00,0.00
1141,1569845733,39.9209,-70.7638,44133016,0.36,82.51,-14.92,9.86,0.00,0.00,0.00,0.00,0.00,-32.77,-32.77,-32.77,-32.77,23.14,146,97,1720,-64,77,23,0.00,0.00
1141,1569845734,39.9209,-70.7638,44134333,0.09,83.19,-17.84,1.38,0.00,0.00,0.00,0.00,0.00,-32.77,-32.77,-32.77,-32.77,23.15,147,-935,1485,250,406,-32745,0.00,0.00
1141,1569845735,39.9209,-70.7637,44135583,0.31,88.27,-18.88,-6.67,0.00,0.00,0.00,0.00,0.00,-32.77,-32.77,-32.77,-32.77,23.11,148,-189,1578,2,-32768,23,0.00,0.00
1141,1569845736,39.9209,-70.7637,44136883,0.66,96.03,-16.55,3.33,0.00,0.00,0.00,0.00,0.00,-32.77,-32.77,-32.77,-32.77,23.12,149,122,1144,-327,225,-32745,0.00,0.00
1141,1569845738,39.9209,-70.7637,44138133,1.09,100.78,-10.36,5.42,0.00,0.00,0.00,0.00,0.00,-32.77,-32.77,-32.77,-32.77,23.06,150,-219,1355,-183,-32768,23,0.00,0.00
1141,1569845739,39.9209,-70.7637,44139449,1.24,102.97,-14.35,0.90,0.00,0.00,0.00,0.00,0.00,-32.77,-32.77,-32.77,-32.77,23.15,151,-194,880,-10,-109,-32745,0.00,0.00
1141,1569845740,39.9209,-70.7637,44140699,1.14,105.62,-16.67,7.13,0.00,0.00,0.00,0.00,0.00,-32.77,-32.77,-32.77,-32.77,23.14,152,139,931,-157,70,23,0.00,0.00
1141,1569845742,39.9209,-70.7637,44142016,1.20,106.78,-11.54,-1.72,0.00,0.00,0.00,0.00,0.00,-32.77,-32.77,-32.77,-32.77,23.12,153,203,-99,-184,215,-32745,0.00,0.00
1141,1569845743,39.9209,-70.7636,44143266,1.24,112.88,-16.13,6.96,0.00,0.00,0.00,0.00,0.00,-32.77,-32.77,-32.77,-32.77,23.12,154,-60,702,-128,40,23,0.00,0.00
1141,1569845744,39.9209,-70.7636,44144583,1.26,113.81,-14.18,-0.56,0.00,0.00,0.00,0.00,0.00,-32.77,-32.77,-32.77,-32.77,23.11,155,498,1533,114,710,-32745,0.00,0.00
1141,1569845745,39.9209,-70.7636,44145883,1.32,112.22,-12.99,-7.57,0.00,0.00,0.00,0.00,0.00,-32.77,-32.77,-32.77,-32.77,23.10,156,-35,817,-124,100,23,0.00,0.00
1141,1569845747,39.9209,-70.7636,44147133,1.45,117.84,-16.15,10.73,0.00,0.00,0.00,0.00,0.00,-32.77,-32.77,-32.77,-32.77,23.15,157,-1019,1722,-536,530,-32745,0.00,0.00
1141,1569845748,39.9209,-70.7636,44148449,1.87,121.20,-14.46,-4.46,0.00,0.00,0.00,0.00,0.00,-32.77,-32.77,-32.77,-32.77,23.14,158,-221,1282,-241,142,23,0.00,0.00
1141,1569845749,39.9209,-70.7635,44149699,2.18,119.14,-7.98,-1.79,0.00,0.00,0.00,0.00,0.00,-32.77,-32.77,-32.77,-32.77,23.16,159,-32768,-32768,-32768,-32768,-32745,0.00,0.00
1141,1569845751,39.9209,-70.7635,44151016,2.59,118.91,-5.99,0.23,0.00,0.00,0.00,0.00,0.00,-32.77,-32.77,-32.77,-32.77,23.13,160,125,1589,-14,-15,23,0.00,0.00
1141,1569845752,39.9209,-70.7635,44152266,2.75,118.08,-5.11,-0.94,0.00,0.00,0.00,0.00,0.00,-32.77,-32.77,-32.77,-32.77,23.17,161,81,1779,87,734,-32745,0.00,0.00
1141,1569845753,39.9208,-70.7634,44153583,2.94,116.09,-1.03,-1.19,0.00,0.00,0.00,0.00,0.00,-32.77,-32.77,-32.77,-32.77,23.15,162,-197,1885,-115,-78,23,0.00,0.00
1141,1569845754,39.9208,-70.7634,44154833,3.02,115.20,-1.34,-1.14,0.00,0.00,0.00,0.00,0.00,-32.77,-32.77,-32.77,-32.77,23.17,163,-941,2144,40,-496,-32745,0.00,0.00
1141,1569845756,39.9208,-70.7634,44156133,2.96,112.61,-0.41,-1.64,0.00,0.00,0.00,0.00,0.00,-32.77,-32.77,-32.77,-32.77,23.14,164,75,2141,-32,55,23,0.00,0.00
1141,1569845757,39.9208,-70.7634,44157449,2.86,109.23,-0.06,-1.39,0.00,0.00,0.00,0.00,0.00,-32.77,-32.77,-32.77,-32.77,23.14,165,-314,2133,-110,314,-32745,0.00,0.00
1141,1569845758,39.9208,-70.7633,44158699,2.76,109.29,-1.39,0.32,0.00,0.00,0.00,0.00,0.00,-32.77,-32.77,-32.77,-32.77,23.14,166,42,2204,-90,-37,23,0.00,0.00
1141,1569845760,39.9208,-70.7633,44160016,2.65,107.07,-2.59,-1.25,0.00,0.00,0.00,0.00,0.00,-32.77,-32.77,-32.77,-32.77,23.13,167,-179,2317,-93,126,-32745,0.00,0.00
1141,1569845761,39.9208,-70.7633,44161266,2.56,103.26,-2.06,-2.19,0.00,0.00,0.00,0.00,0.00,-32.77,-32.77,-32.77,-32.77,23.15,168,57,2258,-241,2,23,0.00,0.00
1141,1569845762,39.9208,-70.7632,44162583,2.49,99.71,-2.28,-2.78,0.00,0.00,0.00,0.00,0.00,-32.77,-32.77,-32.77,-32.77,23.19,169,-850,1828,29,-19,-32745,0.00,0.00
1141,1569845763,39.9208,-70.7632,44163833,2.37,97.77,-2.72,0.31,0.00,0.00,0.00,0.00,0.00,-32.77,-32.77,-32.77,-32.77,23.16,170,72,2328,-5,-23,23,0.00,0.00
1141,1569845765,39.9208,-70.7632,44165133,2.38,94.91,-3.04,-4.41,0.00,0.00,0.00,0.00,0.00,-32.77,-32.77,-32.77,-32.77,23.20,171,524,3036,-316,696,-32745,0.00,0.00
1141,1569845766,39.9208,-70.7631,44166383,2.44,92.89,-6.01,-3.86,0.00,0.00,0.00,0.00,0.00,-32.77,-32.77,-32.77,-32.77,23.16,172,177,2219,-245,122,23,0.00,0.00
1141,1569845767,39.9208,-70.7631,44167699,2.38,85.86,-2.51,-4.12,0.00,0.00,0.00,0.00,0.00,-32.77,-32.77,-32.77,-32.77,23.15,173,-194,2553,-18,-155,-32745,0.00,0.00
1141,1569845769,39.9208,-70.7631,44169016,2.49,83.62,-3.15,-0.10,0.00,0.00,0.00,0.00,0.00,-32.77,-32.77,-32.77,-32.77,23.18,174,184,2325,-31,-35,23,0.00,0.00
1141,1569845770,39.9208,-70.7631,44170266,2.60,82.09,-6.51,-3.85,0.00,0.00,0.00,0.00,0.00,-32.77,-32.77,-32.77,-32.77,23.18,175,592,3083,8,348,-32745,0.00,0.00
1141,1569845771,39.9208,-70.7630,44171583,2.64,76.17,-4.28,-2.81,0.00,0.00,0.00,0.00,0.00,-32.77,-32.77,-32.77,-32.77,23.16,176,90,2381,-189,214,23,0.00,0.00
1141,1569845772,39.9208,-70.7630,44172833,2.60,68.80,-1.36,-0.28,0.00,0.00,0.00,0.00,0.00,-32.77,-32.77,-32.77,-32.77,23.15,177,92,3055,-167,-29,-32745,0.00,0.00
1141,1569845774,39.9208,-70.7630,44174133,2.66,68.83,-3.17,-0.54,0.00,0.00,0.00,0.00,0.00,-32.77,-32.77,-32.77,-32.77,23.16,178,-47,2358,-42,-52,23,0.00,0.00
1141,1569845775,39.9208,-70.7629,44175383,2.62,67.83,-4.28,-0.99,0.00,0.00,0.00,0.00,0.00,-32.77,-32.77,-32.77,-32.77,23.20,179,-116,1709,-18,168,-32745,0.00,0.00
1141,1569845776,39.9208,-70.7629,44176699,2.60,65.57,-4.54,-2.46,0.00,0.00,0.00,0.00,0.00,-32.77,-32.77,-32.77,-32.77,23.19,180,75,2285,-110,180,23,0.00,0.00
1141,1569845777,39.9208,-70.7629,44177949,2.64,64.91,-3.89,0.94,0.00,0.00,0.00,0.00,0.00,-32.77,-32.77,-32.77,-32.77,23.19,181,-248,2250,129,-516,-32745,0.00,0.00
1141,1569845779,39.9209,-70.7629,44179266,2.78,67.42,-6.28,1.73,0.00,0.00,0.00,0.00,0.00,-32.77,-32.77,-32.77,-32.77,23.18,182,-92,2278,-28,147,23,0.00,0.00
1141,1569845780,39.9209,-70.7628,44180516,2.84,64.98,-2.58,-2.50,0.00,0.00,0.00,0.00,0.00,-32.77,-32.77,-32.77,-32.77,23.20,183,106,2624,77,29,-32745,0.00,0.00
1141,1569845781,39.9209,-70.7628,44181833,2.93,64.99,-2.45,1.13,0.00,0.00,0.00,0.00,0.00,-32.77,-32.77,-32.77,-32.77,23.22,184,123,2154,-111,-127,23,0.00,0.00
1141,1569845783,39.9209,-70.7628,44183133,2.92,66.54,-4.25,1.28,0.00,0.00,0.00,0.00,0.00,-32.77,-32.77,-32.77,-32.77,23.18,185,671,1653,28,-163,-32745,0.00,0.00
1141,1569845784,39.9209,-70.7627,44184383,2.91,67.35,-3.63,2.18,0.00,0.00,0.00,0.00,0.00,-32.77,-32.77,-32.77,-32.77,23.18,186,-10,2107,-191,-45,23,0.00,0.00
1141,1569845785,39.9209,-70.7627,44185699,2.85,66.79,-3.34,-2.05,0.00,0.00,0.00,0.00,0.00,-32.77,-32.77,-32.77,-32.77,23.19,187,-140,1906,-185,165,-32745,0.00,0.00
1141,1569845786,39.9209,-70.7627,44186949,2.82,66.68,-1.33,3.83,0.00,0.00,0.00,0.00,0.00,-32.77,-32.77,-32.77,-32.77,23.20,188,47,2293,-60,-57,23,0.00,0.00
1141,1569845788,39.9209,-70.7627,44188266,2.91,71.39,-4.61,0.17,0.00,0.00,0.00,0.00,0.00,-32.77,-32.77,-32.77,-32.77,23.20,189,1132,2871,-161,-29,-32745,0.00,0.00
1141,1569845789,39.9209,-70.7626,44189516,2.86,71.03,-4.37,-1.31,0.00,0.00,0.00,0.00,0.00,-32.77,-32.77,-32.77,-32.77,23.18,190,122,2393,-150,216,23,0.00,0.00
1141,1569845790,39.9209,-70.7626,44190833,2.81,70.51,-2.11,2.05,0.00,0.00,0.00,0.00,0.00,-32.77,-32.77,-32.77,-32.77,23.22,191,245,2362,-319,184,-32745,0.00,0.00
1141,1569845792,39.9209,-70.7626,44192083,2.80,73.09,-3.75,-0.11,0.00,0.00,0.00,0.00,0.00,-32.77,-32.77,-32.77,-32.77,23.17,192,-132,2483,-81,83,23,0.00,0.00
1141,1569845793,39.9209,-70.7625,44193383,2.82,75.06,-5.10,0.29,0.00,0.00,0.00,0.00,0.00,-32.77,-32.77,-32.77,-32.77,23.20,193,-387,3060,57,-7,-32745,0.00,0.00
1141,1569845794,39.9210,-70.7625,44194699,2.85,75.99,-4.91,1.18,0.00,0.00,0.00,0.00,0.00,-32.77,-32.77,-32.77,-32.77,23.19,194,-241,2328,-180,-28,23,0.00,0.00
1141,1569845795,39.9210,-70.7625,44195949,2.81,75.13,-2.08,0.62,0.00,0.00,0.00,0.00,0.00,-32.77,-32.77,-32.77,-32.77,23.16,195,481,2816,-21,83,-32745,0.00,0.00
1141,1569845797,39.9210,-70.7624,44197266,2.91,78.22,-5.20,-1.07,0.00,0.00,0.00,0.00,0.00,-32.77,-32.77,-32.77,-32.77,23.17,196,20,2520,-31,-154,23,0.00,0.00
1141,1569845798,39.9210,-70.7624,44198516,3.00,79.54,-5.39,1.34,0.00,0.00,0.00,0.00,0.00,-32.77,-32.77,-32.77,-32.77,23.20,197,-206,3416,103,-48,-32745,0.00,0.00
1141,1569845799,39.9210,-70.7624,44199833,3.10,80.34,-2.43,0.27,0.00,0.00,0.00,0.00,0.00,-32.77,-32.77,-32.77,-32.77,23.22,198,-245,2295,-195,-20,23,0.00,0.00
1141,1569845801,39.9210,-70.7624,44201083,3.16,79.77,-1.93,-0.21,0.00,0.00,0.00,0.00,0.00,-32.77,-32.77,-32.77,-32.77,23.23,199,-443,2747,-301,134,-32745,0.00,0.00
1141,1569845802,39.9210,-70.7623,44202383,3.21,81.80,-2.03,1.07,0.00,0.00,0.00,0.00,0.00,-32.77,-32.77,-32.77,-32.77,23.18,200,98,2357,-88,27,23,0.00,0.00
1141,1569845803,39.9210,-70.7623,44203633,3.17,82.38,-0.49,0.58,0.00,0.00,0.00,0.00,0.00,-32.77,-32.77,-32.77,-32.77,23.22,201,29,3202,-88,22,-32745,0.00,0.00
1141,1569845804,39.9210,-70.7623,44204949,3.09,82.99,-1.93,0.09,0.00,0.00,0.00,0.00,0.00,-32.77,-32.77,-32.77,-32.77,23.20,202,-112,2482,-88,33,23,0.00,0.00
1141,1569845806,39.9210,-70.7622,44206199,2.91,82.91,-0.90,1.42,0.00,0.00,0.00,0.00,0.00,-32.77,-32.77,-32.77,-32.77,23.22,203,-311,2303,40,232,-32745,0.00,0.00
1141,1569845807,39.9210,-70.7622,44207516,2.90,86.59,-4.62,-0.10,0.00,0.00,0.00,0.00,0.00,-32.77,-32.77,-32.77,-32.77,23.21,204,-156,2378,-78,-83,23,0.00,0.00
1141,1569845808,39.9210,-70.7622,44208833,2.72,84.21,-2.45,-0.37,0.00,0.00,0.00,0.00,0.00,-32.77,-32.77,-32.77,-32.77,23.23,205,-574,2318,457,207,-32745,0.00,0.00
1141,1569845810,39.9210,-70.7621,44210083,2.69,84.59,-2.03,-0.29,0.00,0.00,0.00,0.00,0.00,-32.77,-32.77,-32.77,-32.77,23.26,206,-47,2348,-52,52,23,0.00,0.00
1141,1569845811,39.9210,-70.7621,44211383,2.74,88.14,-5.90,1.30,0.00,0.00,0.00,0.00,0.00,-32.77,-32.77,-32.77,-32.77,23.21,207,-103,2011,-46,-135,-32745,0.00,0.00
1141,1569845812,39.9210,-70.7621,44212633,2.65,85.63,-3.38,-2.41,0.00,0.00,0.00,0.00,0.00,-32.77,-32.77,-32.77,-32.77,23.24,208,-65,2261,-140,-20,23,0.00,0.00
1141,1569845813,39.9210,-70.7620,44213949,2.68,86.73,-4.53,2.09,0.00,0.00,0.00,0.00,0.00,-32.77,-32.77,-32.77,-32.77,23.23,209,-509,2605,-531,77,-32745,0.00,0.00
1141,1569845815,39.9210,-70.7620,44215199,2.70,86.30,-4.55,-1.40,0.00,0.00,0.00,0.00,2.60,-32.77,-32.77,-32.77,-32.77,23.25,210,-192,2457,-170,8,23,0.00,0.00
1141,1569845816,39.9210,-70.7620,44216516,2.64,84.56,-3.55,-0.04,0.00,0.00,0.00,0.00,0.00,-32.77,-32.77,-32.77,-32.77,23.19,211,-446,2888,-128,-69,-32745,0.00,0.00
1141,1569845817,39.9210,-70.7620,44217766,2.81,87.92,-6.66,1.32,0.00,0.00,0.00,0.00,0.00,-32.77,-32.77,-32.77,-32.77,23.23,212,23,2468,3,17,23,0.00,0.00
1141,1569845819,39.9210,-70.7619,44219066,2.86,85.07,-3.10,-2.52,0.00,0.00,0.00,0.00,0.00,-32.77,-32.77,-32.77,-32.77,23.25,213,-251,2994,331,612,-32745,0.00,0.00
1141,1569845820,39.9210,-70.7619,44220383,2.89,83.23,-3.79,-0.53,0.00,0.00,0.00,0.00,0.00,-32.77,-32.77,-32.77,-32.77,23.26,214,105,2200,-110,-65,23,0.00,0.00
1141,1569845821,39.9210,-70.7619,44221633,2.83,81.40,-2.00,-0.41,0.00,0.00,0.00,0.00,0.00,-32.77,-32.77,-32.77,-32.77,23.24,215,141,2724,-90,-6,-32745,0.00,0.00
1141,1569845822,39.9210,-70.7618,44222949,2.89,83.27,-4.60,-0.55,0.00,0.00,0.00,0.00,0.00,-32.77,-32.77,-32.77,-32.77,23.24,216,27,2452,-125,82,23,0.00,0.00
1141,1569845824,39.9210,-70.7618,44224199,2.86,83.07,-4.90,1.75,0.00,0.00,0.00,0.00,0.00,-32.77,-32.77,-32.77,-32.77,23.26,217,-511,2303,123,65,-32745,0.00,0.00
1141,1569845825,39.9210,-70.7618,44225516,2.87,81.42,-3.28,-2.16,0.00,0.00,0.00,0.00,0.00,-32.77,-32.77,-32.77,-32.77,23.24,218,105,2281,-140,130,23,0.00,0.00
1141,1569845826,39.9210,-70.7617,44226766,2.92,81.60,-4.28,0.35,0.00,0.00,0.00,0.00,1.25,-32.77,-32.77,-32.77,-32.77,23.25,219,-538,2282,-362,-132,-32745,0.00,0.00
1141,1569845828,39.9210,-70.7617,44228083,2.91,81.16,-4.08,-0.52,0.00,0.00,0.00,0.00,0.00,-32.77,-32.77,-32.77,-32.77,23.26,220,-37,2318,-164,-3,23,0.00,0.00
1141,1569845829,39.9210,-70.7617,44229316,2.98,80.87,-3.73,-0.47,0.00,0.00,0.00,0.00,0.00,-32.77,-32.77,-32.77,-32.77,23.28,221,-204,2503,-138,-171,-32745,0.00,0.00
1141,1569845830,39.9210,-70.7616,44230633,3.09,81.63,-3.94,0.63,0.00,0.00,0.00,0.00,0.00,-32.77,-32.77,-32.77,-32.77,23.23,222,-12,2253,-97,-57,23,0.00,0.00
1141,1569845831,39.9210,-70.7616,44231949,3.14,79.59,-1.56,-1.11,0.00,0.00,0.00,0.00,0.00,-32.77,-32.77,-32.77,-32.77,23.28,223,97,2608,152,-110,-32745,0.00,0.00
1141,1569845833,39.9210,-70.7616,44233199,3.19,79.33,-1.64,0.20,0.00,0.00,0.00,0.00,0.00,-32.77,-32.77,-32.77,-32.77,23.25,224,42,2393,-48,-33,23,0.00,0.00
1141,1569845834,39.9210,-70.7616,44234516,3.20,80.13,-3.58,-0.13,0.00,0.00,0.00,0.00,0.00,-32.77,-32.77,-32.77,-32.77,23.27,225,48,2496,165,245,-32745,0.00,0.00
1141,1569845835,39.9211,-70.7615,44235766,3.11,78.31,-1.47,-0.24,0.00,0.00,0.00,0.00,0.00,-32.77,-32.77,-32.77,-32.77,23.26,226,132,2318,-92,-17,23,0.00,0.00
1141,1569845837,39.9211,-70.7615,44237066,3.09,78.26,-0.99,-0.77,0.00,0.00,0.00,0.00,0.00,-32.77,-32.77,-32.77,-32.77,23.27,227,47,2486,-210,-106,-32745,0.00,0.00
1141,1569845838,39.9211,-70.7615,44238316,3.06,77.96,-1.14,1.00,0.00,0.00,0.00,0.00,0.00,-32.77,-32.77,-32.77,-32.77,23.25,228,69,2096,-138,25,23,0.00,0.00
1141,1569845839,39.9211,-70.7614,44239633,3.00,79.24,-2.73,-0.94,0.00,0.00,0.00,0.00,0.00,-32.77,-32.77,-32.77,-32.77,23.24,229,573,2691,174,182,-32745,0.00,0.00
1141,1569845840,39.9211,-70.7614,44240883,2.90,79.22,-2.28,2.67,0.00,0.00,0.00,0.00,0.00,-32.77,-32.77,-32.77,-32.77,23.27,230,42,2348,-117,-147,23,0.00,0.00
1141,1569845842,39.9211,-70.7614,44242199,2.82,79.38,-1.80,-2.68,0.00,0.00,0.00,0.00,0.00,-32.77,-32.77,-32.77,-32.77,23.29,231,339,2592,-199,-102,-32745,0.00,0.00
1141,1569845843,39.9211,-70.7613,44243449,2.81,79.97,-2.75,1.37,0.00,0.00,0.00,0.00,0.00,-32.77,-32.77,-32.77,-32.77,23.23,232,234,2201,-118,-94,23,0.00,0.00
1141,1569845844,39.9211,-70.7613,44244766,2.85,82.39,-5.30,0.23,0.00,0.00,0.00,0.00,0.00,-32.77,-32.77,-32.77,-32.77,23.25,233,608,2219,357,1,-32745,0.00,0.00
1141,1569845846,39.9211,-70.7613,44246066,2.78,79.31,-2.26,-1.10,0.00,0.00,0.00,0.00,0.00,-32.77,-32.77,-32.77,-32.77,23.26,234,-42,2258,-205,112,23,0.00,0.00
1141,1569845847,39.9211,-70.7613,44247316,2.76,79.43,-3.14,0.88,0.00,0.00,0.00,0.00,0.00,-32.77,-32.77,-32.77,-32.77,23.28,235,-96,2250,-330,184,-32745,0.00,0.00
1141,1569845848,39.9211,-70.7612,44248633,2.82,82.22,-4.76,1.13,0.00,0.00,0.00,0.00,0.00,-32.77,-32.77,-32.77,-32.77,23.28,236,-50,2371,-108,74,23,0.00,0.00
1141,1569845849,39.9211,-70.7612,44249883,2.83,80.42,-4.34,-2.63,0.00,0.00,0.00,0.00,0.00,-32.77,-32.77,-32.77,-32.77,23.29,237,-68,2766,38,105,-32745,0.00,0.00
1141,1569845851,39.9211,-70.7612,44251199,2.84,79.21,-2.09,0.78,0.00,0.00,0.00,0.00,0.00,-32.77,-32.77,-32.77,-32.77,23.29,238,-20,2181,-143,10,23,0.00,0.00
1141,1569845852,39.9211,-70.7611,44252449,2.93,81.05,-3.85,0.77,0.00,0.00,0.00,0.00,0.00,-32.77,-32.77,-32.77,-32.77,23.25,239,320,2600,-206,74,-32745,0.00,0.00
1141,1569845853,39.9211,-70.7611,44253766,2.89,79.61,-2.94,-1.09,0.00,0.00,0.00,0.00,0.00,-32.77,-32.77,-32.77,-32.77,23.29,240,20,2281,-222,-134,23,0.00,0.00
1141,1569845855,39.9211,-70.7611,44255016,2.86,79.16,-2.22,-0.59,0.00,0.00,0.00,0.00,0.00,-32.77,-32.77,-32.77,-32.77,23.26,241,-659,2875,-124,-520,-32745,0.00,0.00
1141,1569845856,39.9211,-70.7610,44256316,2.88,81.50,-4.13,2.39,0.00,0.00,0.00,0.00,0.00,-32.77,-32.77,-32.77,-32.77,23.26,242,21,2300,-97,-30,23,0.00,0.00
1141,1569845857,39.9211,-70.7610,44257633,2.84,80.85,-2.94,-2.47,0.00,0.00,0.00,0.00,0.00,-32.77,-32.77,-32.77,-32.77,23.25,243,-135,2360,206,332,-32745,0.00,0.00
1141,1569845858,39.9211,-70.7610,44258883,2.82,80.16,-3.55,0.52,0.00,0.00,0.00,0.00,0.00,-32.77,-32.77,-32.77,-32.77,23.27,244,403,2042,-311,-229,23,0.00,0.00
1141,1569845860,39.9211,-70.7610,44260199,2.79,80.65,-4.97,0.22,0.00,0.00,0.00,0.00,0.00,-32.77,-32.77,-32.77,-32.77,23.31,245,768,2482,-3,726,-32745,0.00,0.00
1141,1569845861,39.9211,-70.7609,44261449,2.78,80.79,-4.22,1.50,0.00,0.00,0.00,0.00,0.00,-32.77,-32.77,-32.77,-32.77,23.30,246,-37,2229,-146,-48,23,0.00,0.00
1141,1569845862,39.9211,-70.7609,44262766,2.82,80.03,-4.12,-1.18,0.00,0.00,0.00,0.00,0.00,-32.77,-32.77,-32.77,-32.77,23.28,247,259,1758,-231,-10,-32745,0.00,0.00
1141,1569845864,39.9211,-70.7609,44264016,2.97,82.01,-5.46,0.48,0.00,0.00,0.00,0.00,0.00,-32.77,-32.77,-32.77,-32.77,23.29,248,178,2384,-108,-32768,23,0.00,0.00
1141,1569845865,39.9211,-70.7608,44265316,3.01,80.15,-3.01,-0.73,0.00,0.00,0.00,0.00,0.00,-32.77,-32.77,-32.77,-32.77,23.31,249,-43,2637,110,210,-32745,0.00,0.00
1141,1569845866,39.9211,-70.7608,44266566,3.03,79.38,-1.73,1.00,0.00,0.00,0.00,0.00,0.00,-32.77,-32.77,-32.77,-32.77,23.31,250,82,2239,-64,82,23,0.00,0.00
1141,1569845867,39.9212,-70.7608,44267883,3.06,80.54,-2.40,-1.70,0.00,0.00,0.00,0.00,0.00,-32.77,-32.77,-32.77,-32.77,23.31,251,432,2395,-247,-189,-32745,0.00,0.00
1141,1569845869,39.9212,-70.7607,44269199,3.07,80.89,-3.45,0.47,0.00,0.00,0.00,0.00,0.00,-32.77,-32.77,-32.77,-32.77,23.30,252,50,2350,-155,30,23,0.00,0.00
1141,1569845870,39.9212,-70.7607,44270449,3.04,80.04,-3.39,-1.13,0.00,0.00,0.00,0.00,0.00,-32.77,-32.77,-32.77,-32.77,23.29,253,127,2256,-101,-66,-32745,0.00,0.00
1141,1569845871,39.9212,-70.7607,44271766,2.98,79.34,-0.40,2.71,0.00,0.00,0.00,0.00,0.00,-32.77,-32.77,-32.77,-32.77,23.31,254,-3,2169,-103,42,23,0.00,0.00
1141,1569845873,39.9212,-70.7607,44273016,2.99,81.77,-4.20,-1.33,0.00,0.00,0.00,0.00,0.00,-32.77,-32.77,-32.77,-32.77,23.30,255,595,2213,-326,-404,-32745,0.00,0.00
1141,1569845874,39.9212,-70.7606,44274316,2.93,80.68,-3.67,-0.26,0.00,0.00,0.00,0.00,0.00,-32.77,-32.77,-32.77,-32.77,23.32,256,-8,2333,-168,53,23,0.00,0.00
1141,1569845875,39.9212,-70.7606,44275566,2.89,79.94,-2.58,0.74,0.00,0.00,0.00,0.00,0.00,-32.77,-32.77,-32.77,-32.77,23.32,257,134,2386,-197,377,-32745,0.00,0.00
1141,1569845876,39.9212,-70.7606,44276883,2.82,79.94,-2.58,1.11,0.00,0.00,0.00,0.00,0.00,-32.77,-32.77,-32.77,-32.77,23.28,258,-52,2263,-125,82,23,0.00,0.00
1141,1569845878,39.9212,-70.7605,44278133,2.82,82.02,-5.04,0.07,0.00,0.00,0.00,0.00,0.00,-32.77,-32.77,-32.77,-32.77,23.32,259,-290,2957,-67,-221,-32745,0.00,0.00
1141,1569845879,39.9212,-70.7605,44279449,2.85,81.68,-3.64,-0.10,0.00,0.00,0.00,0.00,0.00,-32.77,-32.77,-32.77,-32.77,23.34,260,-84,2191,-181,9,23,0.00,0.00
1141,1569845880,39.9212,-70.7605,44280699,2.94,81.64,-3.82,-0.85,0.00,0.00,0.00,0.00,0.00,-32.77,-32.77,-32.77,-32.77,23.29,261,74,2571,-38,-34,-32745,0.00,0.00
1141,1569845882,39.9212,-70.7604,44282016,3.02,82.51,-3.52,0.26,0.00,0.00,0.00,0.00,0.00,-32.77,-32.77,-32.77,-32.77,23.28,262,-35,2380,-128,-91,23,0.00,0.00
1141,1569845883,39.9212,-70.7604,44283316,3.10,82.78,-3.61,-1.09,0.00,0.00,0.00,0.00,0.00,-32.77,-32.77,-32.77,-32.77,23.34,263,-308,1977,-231,8,-32745,0.00,0.00
1141,1569845884,39.9212,-70.7604,44284566,3.10,80.97,-2.65,-0.42,0.00,0.00,0.00,0.00,0.00,-32.77,-32.77,-32.77,-32.77,23.33,264,-15,2361,-232,25,23,0.00,0.00
1141,1569845885,39.9212,-70.7603,44285883,3.08,80.16,-0.83,0.23,0.00,0.00,0.00,0.00,0.00,-32.77,-32.77,-32.77,-32.77,23.31,265,461,2462,-165,328,-32745,0.00,0.00
1141,1569845887,39.9212,-70.7603,44287133,3.06,81.54,-3.28,1.17,0.00,0.00,0.00,0.00,0.00,-32.77,-32.77,-32.77,-32.77,23.31,266,-77,2398,-107,107,23,0.00,0.00
1141,1569845888,39.9212,-70.7603,44288449,2.93,80.09,-2.64,-0.45,0.00,0.00,0.00,0.00,0.00,-32.77,-32.77,-32.77,-32.77,23.33,267,-107,2283,-96,-320,-32745,0.00,0.00
1141,1569845889,39.9212,-70.7603,44289699,2.79,78.31,-1.21,0.21,0.00,0.00,0.00,0.00,0.00,-32.77,-32.77,-32.77,-32.77,23.33,268,97,2273,-152,-71,23,0.00,0.00
1141,1569845891,39.9212,-70.7602,44291016,2.78,81.79,-4.35,0.19,0.00,0.00,0.00,0.00,0.00,-32.77,-32.77,-32.77,-32.77,23.30,269,-233,2563,-366,-60,-32745,0.00,0.00
1141,1569845892,39.9212,-70.7602,44292266,2.83,82.56,-6.35,-1.74,0.00,0.00,0.00,0.00,0.00,-32.77,-32.77,-32.77,-32.77,23.32,270,4,2265,-177,55,23,0.00,0.00
1141,1569845893,39.9212,-70.7602,44293566,2.85,81.45,-3.39,0.72,0.00,0.00,0.00,0.00,0.00,-32.77,-32.77,-32.77,-32.77,23.35,271,-260,2951,59,-196,-32745,0.00,0.00
1141,1569845894,39.9212,-70.7601,44294883,2.94,80.45,-3.48,-1.51,0.00,0.00,0.00,0.00,0.00,-32.77,-32.77,-32.77,-32.77,23.34,272,-52,2249,-101,47,23,0.00,0.00
1141,1569845896,39.9212,-70.7601,44296133,3.01,81.46,-2.79,0.26,0.00,0.00,0.00,0.00,0.00,-32.77,-32.77,-32.77,-32.77,23.32,273,-221,1736,-26,-219,-32745,0.00,0.00
1141,1569845897,39.9212,-70.7601,44297449,3.06,81.78,-3.93,0.41,0.00,0.00,0.00,0.00,0.00,-32.77,-32.77,-32.77,-32.77,23.30,274,-105,2285,-39,55,23,0.00,0.00
1141,1569845898,39.9212,-70.7600,44298699,3.01,79.77,-1.57,0.37,0.00,0.00,0.00,0.00,0.00,-32.77,-32.77,-32.77,-32.77,23.31,275,-734,2135,198,166,-32745,0.00,0.00
1141,1569845900,39.9212,-70.7600,44300016,2.94,79.13,-2.17,-2.24,0.00,0.00,0.00,0.00,0.00,-32.77,-32.77,-32.77,-32.77,23.34,276,40,2396,-95,30,23,0.00,0.00
1141,1569845901,39.9213,-70.7600,44301266,2.82,79.49,-2.17,3.09,0.00,0.00,0.00,0.00,0.00,-32.77,-32.77,-32.77,-32.77,23.36,277,-1157,2016,83,618,-32745,0.00,0.00
1141,1569845902,39.9213,-70.7600,44302566,2.86,82.59,-5.89,0.24,0.00,0.00,0.00,0.00,0.00,-32.77,-32.77,-32.77,-32.77,23.29,278,-211,2194,-69,-18,23,0.00,0.00
1141,1569845903,39.9213,-70.7599,44303816,2.73,79.32,-3.19,-1.63,0.00,0.00,0.00,0.00,0.00,-32.77,-32.77,-32.77,-32.77,23.32,279,-851,2887,350,-483,-32745,0.00,0.00
1141,1569845905,39.9213,-70.7599,44305133,2.80,81.29,-4.06,1.27,0.00,0.00,0.00,0.00,0.00,-32.77,-32.77,-32.77,-32.77,23.34,280,259,2046,-90,35,23,0.00,0.00
1141,1569845906,39.9213,-70.7599,44306449,2.86,82.04,-3.68,-1.26,0.00,0.00,0.00,0.00,0.00,-32.77,-32.77,-32.77,-32.77,23.35,281,639,2097,172,-59,-32745,0.00,0.00
1141,1569845907,39.9213,-70.7598,44307699,2.94,82.11,-5.03,-0.22,0.00,0.00,0.00,0.00,0.00,-32.77,-32.77,-32.77,-32.77,23.36,282,104,2276,-126,60,23,0.00,0.00
1141,1569845909,39.9213,-70.7598,44309016,2.93,81.03,-3.34,-0.42,0.00,0.00,0.00,0.00,0.00,-32.77,-32.77,-32.77,-32.77,23.36,283,-33,2888,29,-227,-32745,0.00,0.00
1141,1569845910,39.9213,-70.7598,44310266,2.88,78.91,-1.54,-0.01,0.00,0.00,0.00,0.00,0.00,-32.77,-32.77,-32.77,-32.77,23.32,284,-112,2352,-93,-18,23,0.00,0.00
1141,1569845911,39.9213,-70.7597,44311566,2.98,82.81,-6.09,0.74,0.00,0.00,0.00,0.00,0.00,-32.77,-32.77,-32.77,-32.77,23.36,285,-354,2088,-178,-384,-32745,0.00,0.00
1141,1569845912,39.9213,-70.7597,44312816,2.88,79.27,-2.57,-0.17,0.00,0.00,0.00,0.00,0.00,-32.77,-32.77,-32.77,-32.77,23.35,286,59,2311,-159,30,23,0.00,0.00
1141,1569845914,39.9213,-70.7597,44314133,2.75,78.01,-1.19,0.45,0.00,0.00,0.00,0.00,0.00,-32.77,-32.77,-32.77,-32.77,23.34,287,89,2411,-673,-25,-32745,0.00,0.00
1141,1569845915,39.9213,-70.7597,44315383,2.78,82.09,-6.33,1.76,0.00,0.00,0.00,0.00,0.00,-32.77,-32.77,-32.77,-32.77,23.35,288,-88,2413,-34,-37,23,0.00,0.00
1141,1569845916,39.9213,-70.7596,44316699,2.77,81.25,-4.96,-1.10,0.00,0.00,0.00,0.00,0.00,-32.77,-32.77,-32.77,-32.77,23.37,289,-202,3068,271,-797,-32745,0.00,0.00
1141,1569845917,39.9213,-70.7596,44317949,2.73,78.82,-2.51,-0.81,0.00,0.00,0.00,0.00,0.00,-32.77,-32.77,-32.77,-32.77,23.38,290,120,2251,-202,-25,23,0.00,0.00
1141,1569845919,39.9213,-70.7596,44319266,2.94,82.94,-6.49,0.72,0.00,0.00,0.00,0.00,0.00,-32.77,-32.77,-32.77,-32.77,23.37,291,-283,1867,-211,14,-32745,0.00,0.00
1141,1569845920,39.9213,-70.7595,44320566,3.02,81.29,-4.36,-2.18,0.00,0.00,0.00,0.00,0.00,-32.77,-32.77,-32.77,-32.77,23.36,292,-175,2280,-232,-15,23,0.00,0.00
1141,1569845921,39.9213,-70.7595,44321816,3.00,78.62,-2.54,0.80,0.00,0.00,0.00,0.00,0.00,-32.77,-32.77,-32.77,-32.77,23.34,293,-278,2613,-213,-232,-32745,0.00,0.00
1141,1569845923,39.9213,-70.7595,44323133,2.98,78.94,-2.27,1.66,0.00,0.00,0.00,0.00,0.00,-32.77,-32.77,-32.77,-32.77,23.39,294,-112,2313,-52,12,23,0.00,0.00
1141,1569845924,39.9213,-70.7594,44324383,3.01,80.91,-4.24,-1.33,0.00,0.00,0.00,0.00,0.00,-32.77,-32.77,-32.77,-32.77,23.34,295,-385,2005,38,-480,-32745,0.00,0.00
1141,1569845925,39.9213,-70.7594,44325699,2.95,79.45,-4.27,0.56,0.00,0.00,0.00,0.00,0.00,-32.77,-32.77,-32.77,-32.77,23.39,296,97,2348,-168,-8,23,0.00,0.00
1141,1569845926,39.9213,-70.7594,44326949,2.95,80.62,-3.49,1.94,0.00,0.00,0.00,0.00,0.00,-32.77,-32.77,-32.77,-32.77,23.33,297,561,2153,-231,208,-32745,0.00,0.00
1141,1569845928,39.9213,-70.7594,44328266,2.98,80.41,-2.90,-1.65,0.00,0.00,0.00,0.00,0.00,-32.77,-32.77,-32.77,-32.77,23.35,298,-65,2285,-106,89,23,0.00,0.00
1141,1569845929,39.9213,-70.7593,44329516,3.01,81.01,-3.69,1.25,0.00,0.00,0.00,0.00,0.00,-32.77,-32.77,-32.77,-32.77,23.37,299,-606,2382,50,662,-32745,0.00,0.00
1141,1569845930,39.9213,-70.7593,44330816,2.98,81.28,-3.45,-0.72,0.00,0.00,0.00,0.00,0.00,-32.77,-32.77,-32.77,-32.77,23.38,300,-8,2328,-113,73,23,0.00,0.00
1141,1569845932,39.9213,-70.7593,44332133,2.90,80.28,-3.16,0.72,0.00,0.00,0.00,0.00,0.00,-32.77,-32.77,-32.77,-32.77,23.36,301,158,2121,-260,-81,-32745,0.00,0.00
1141,1569845933,39.9213,-70.7592,44333383,2.97,82.80,-4.63,0.59,0.00,0.00,0.00,0.00,0.00,-32.77,-32.77,-32.77,-32.77,23.38,302,-3,2373,-84,-9,23,0.00,0.00
1141,1569845934,39.9213,-70.7592,44334699,3.03,81.87,-4.42,-2.06,0.00,0.00,0.00,0.00,0.00,-32.77,-32.77,-32.77,-32.77,23.39,303,-286,2803,116,-402,-32745,0.00,0.00
1141,1569845935,39.9214,-70.7592,44335949,3.04,80.42,-3.19,0.09,0.00,0.00,0.00,0.00,0.00,-32.77,-32.77,-32.77,-32.77,23.35,304,139,2401,-104,-84,23,0.00,0.00
1141,1569845937,39.9214,-70.7591,44337266,3.04,80.14,-2.81,0.93,0.00,0.00,0.00,0.00,0.00,-32.77,-32.77,-32.77,-32.77,23.40,305,44,1898,-161,-146,-32745,0.00,0.00
1141,1569845938,39.9214,-70.7591,44338516,3.04,80.53,-2.04,0.09,0.00,0.00,0.00,0.00,0.00,-32.77,-32.77,-32.77,-32.77,23.38,306,-17,2333,-76,-141,23,0.00,0.00
1141,1569845939,39.9214,-70.7591,44339816,3.02,81.41,-4.03,-0.57,0.00,0.00,0.00,0.00,0.00,-32.77,-32.77,-32.77,-32.77,23.40,307,153,1645,66,361,-32745,0.00,0.00
1141,1569845941,39.9214,-70.7591,44341066,2.99,80.48,-2.91,-0.08,0.00,0.00,0.00,0.00,0.00,-32.77,-32.77,-32.77,-32.77,23.38,308,35,2281,-136,0,23,0.00,0.00
1141,1569845942,39.9214,-70.7590,44342383,2.96,80.25,-2.37,0.33,0.00,0.00,0.00,0.00,0.00,-32.77,-32.77,-32.77,-32.77,23.40,309,57,1853,-151,297,-32745,0.00,0.00
Message Id[unsigned short|#],Timestamp[unsigned long|epoch],Latitude[double|°],Longitude[double|°],Mission Time[unsigned long|tod],Depth[float|Meters],Sensor Voltage[float|V],Temperature[float|°C],Supply Voltage[float|V]
1173,1569845686,39.9207,-70.7643,44086016,0.07,512.47,23.53,11.74
1173,1569845686,39.9207,-70.7643,44086149,0.07,552.61,23.53,11.74
1173,1569845686,39.9207,-70.7643,44086199,0.07,559.62,23.53,11.70
1173,1569845686,39.9207,-70.7643,44086333,0.07,515.49,23.53,11.59
1173,1569845686,39.9207,-70.7643,44086449,0.06,601.51,23.53,11.70
1173,1569845686,39.9207,-70.7643,44086583,0.06,823.66,23.53,11.72
1173,1569845686,39.9207,-70.7643,44086699,0.06,1385.26,23.53,11.76
1173,1569845686,39.9207,-70.7643,44086833,0.01,1526.19,23.53,11.74
1173,1569845686,39.9207,-70.7643,44086899,0.01,1444.76,23.53,11.74
1173,1569845687,39.9207,-70.7643,44087016,0.02,1076.22,23.53,11.76
1173,1569845687,39.9207,-70.7643,44087149,0.02,590.40,23.53,11.76
1173,1569845687,39.9207,-70.7643,44087266,0.09,725.65,23.53,11.89
1173,1569845687,39.9207,-70.7643,44087399,0.09,931.77,23.53,11.74
1173,1569845687,39.9207,-70.7643,44087449,0.09,1033.98,23.53,11.76
1173,1569845687,39.9207,-70.7643,44087583,0.09,961.66,23.53,11.74
1173,1569845687,39.9207,-70.7643,44087699,0.09,1072.56,23.53,11.74
1173,1569845687,39.9207,-70.7643,44087833,-0.00,1541.26,23.53,11.76
1173,1569845687,39.9207,-70.7643,44087949,-0.00,1601.07,23.53,11.76
1173,1569845688,39.9207,-70.7643,44088083,-0.08,1258.96,23.53,11.74
1173,1569845688,39.9207,-70.7643,44088149,-0.08,706.04,23.53,11.76
1173,1569845688,39.9207,-70.7643,44088266,-0.10,739.27,23.53,11.74
1173,1569845688,39.9207,-70.7643,44088399,-0.10,655.71,23.53,11.74
1173,1569845688,39.9207,-70.7643,44088516,-0.06,659.85,23.53,11.74
1173,1569845688,39.9207,-70.7643,44088633,-0.06,636.85,23.53,11.74
1173,1569845688,39.9207,-70.7643,44088766,0.06,523.67,23.53,11.74
1173,1569845688,39.9207,-70.7643,44088833,0.06,422.45,23.53,11.76
1173,1569845688,39.9207,-70.7643,44088949,0.06,378.14,23.53,11.82
1173,1569845689,39.9207,-70.7643,44089083,0.16,403.88,23.53,11.87
1173,1569845689,39.9207,-70.7643,44089199,0.16,427.46,23.53,11.70
1173,1569845689,39.9207,-70.7643,44089333,0.15,490.92,23.53,11.76
1173,1569845689,39.9207,-70.7643,44089399,0.15,589.59,23.53,11.59
1173,1569845689,39.9207,-70.7643,44089516,0.15,646.55,23.53,11.72
1173,1569845689,39.9207,-70.7643,44089649,0.03,673.14,23.53,11.87
1173,1569845689,39.9207,-70.7643,44089766,0.03,657.06,23.53,11.85
1173,1569845689,39.9207,-70.7643,44089899,-0.06,630.78,23.53,11.72
1173,1569845690,39.9207,-70.7643,44090016,-0.06,1103.96,23.53,11.70
1173,1569845690,39.9207,-70.7643,44090083,-0.05,1579.83,23.53,11.89
1173,1569845690,39.9207,-70.7643,44090199,-0.05,1688.74,23.53,11.72
1173,1569845690,39.9207,-70.7643,44090333,0.03,1717.12,23.53,11.70
1173,1569845690,39.9207,-70.7643,44090449,0.03,1726.72,23.53,11.55
1173,1569845690,39.9207,-70.7643,44090583,0.09,1720.62,23.53,11.74
1173,1569845690,39.9207,-70.7643,44090699,0.09,1717.67,23.53,11.76
1173,1569845690,39.9207,-70.7643,44090766,0.09,1723.39,23.53,11.74
1173,1569845690,39.9207,-70.7643,44090883,0.13,1741.16,23.53,11.76
1173,1569845691,39.9207,-70.7643,44091016,0.13,1762.79,23.53,11.74
1173,1569845691,39.9207,-70.7643,44091133,0.15,1759.08,23.53,11.74
1173,1569845691,39.9207,-70.7643,44091266,0.15,1734.84,23.53,11.76
1173,1569845691,39.9207,-70.7643,44091383,0.08,1629.14,23.53,11.74
1173,1569845691,39.9207,-70.7643,44091449,0.08,925.15,23.53,11.74
1173,1569845691,39.9207,-70.7643,44091583,-0.01,317.24,23.53,11.74
1173,1569845691,39.9207,-70.7643,44091699,-0.01,423.03,23.53,11.74
1173,1569845691,39.9207,-70.7643,44091833,-0.01,471.56,23.53,11.74
1173,1569845691,39.9207,-70.7643,44091949,-0.07,507.41,23.53,11.76
1173,1569845692,39.9207,-70.7643,44092083,-0.07,446.89,23.53,11.74
1173,1569845692,39.9207,-70.7643,44092133,-0.07,516.28,23.53,11.76
1173,1569845692,39.9207,-70.7643,44092266,-0.07,595.43,23.53,11.76
1173,1569845692,39.9207,-70.7643,44092383,0.00,626.86,23.53,11.74
1173,1569845692,39.9207,-70.7643,44092516,0.00,597.04,23.53,11.74
1173,1569845692,39.9207,-70.7643,44092633,0.01,595.38,23.53,11.76
1173,1569845692,39.9207,-70.7643,44092699,0.01,576.35,23.53,11.76
1173,1569845692,39.9207,-70.7643,44092833,0.01,577.57,23.53,11.76
1173,1569845692,39.9207,-70.7643,44092949,0.02,533.93,23.53,11.76
1173,1569845693,39.9207,-70.7643,44093083,0.02,361.13,23.53,11.76
1173,1569845693,39.9207,-70.7643,44093199,0.02,521.73,23.53,11.78
1173,1569845693,39.9207,-70.7643,44093333,0.02,692.78,23.53,11.76
1173,1569845693,39.9207,-70.7643,44093383,0.04,729.07,23.53,11.74
1173,1569845693,39.9207,-70.7643,44093516,0.04,719.83,23.53,11.76
1173,1569845693,39.9207,-70.7643,44093633,0.04,800.29,23.53,11.76
1173,1569845693,39.9207,-70.7643,44093766,0.04,1035.21,23.53,11.76
1173,1569845693,39.9207,-70.7643,44093883,0.06,1113.90,23.53,11.70
1173,1569845694,39.9207,-70.7643,44094016,0.06,1589.64,23.53,11.76
1173,1569845694,39.9207,-70.7643,44094083,0.06,1633.51,23.53,11.74
1173,1569845694,39.9207,-70.7643,44094199,0.05,1654.76,23.53,11.74
1173,1569845694,39.9207,-70.7643,44094333,0.05,1612.44,23.53,11.74
1173,1569845694,39.9207,-70.7643,44094449,0.04,1440.18,23.53,11.80
1173,1569845694,39.9207,-70.7643,44094583,0.04,887.04,23.53,11.76
1173,1569845694,39.9207,-70.7643,44094699,-0.02,948.85,23.53,11.61
1173,1569845694,39.9207,-70.7643,44094766,-0.02,963.09,23.53,11.70
1173,1569845694,39.9207,-70.7643,44094883,-0.02,1118.98,23.53,11.72
1173,1569845695,39.9207,-70.7643,44095016,-0.02,835.02,23.53,11.70
1173,1569845695,39.9207,-70.7643,44095149,-0.02,614.64,23.53,11.74
1173,1569845695,39.9207,-70.7643,44095266,0.09,598.12,23.53,11.76
1173,1569845695,39.9207,-70.7643,44095333,0.09,457.02,23.53,11.68
1173,1569845695,39.9207,-70.7643,44095449,0.17,546.65,23.53,11.70
1173,1569845695,39.9207,-70.7643,44095583,0.17,506.10,23.53,11.74
1173,1569845695,39.9207,-70.7643,44095699,0.18,436.86,23.53,11.76
1173,1569845695,39.9207,-70.7643,44095833,0.18,465.06,23.53,11.91
1173,1569845695,39.9207,-70.7643,44095949,0.14,507.00,23.53,11.80
1173,1569845696,39.9207,-70.7643,44096016,0.14,562.01,23.53,11.57
1173,1569845696,39.9207,-70.7643,44096133,0.14,514.93,23.53,11.80
1173,1569845696,39.9207,-70.7643,44096266,0.09,549.16,23.53,11.72
1173,1569845696,39.9207,-70.7643,44096383,0.09,568.69,23.53,11.85
1173,1569845696,39.9207,-70.7643,44096516,0.05,463.76,23.53,11.74
1173,1569845696,39.9207,-70.7643,44096633,0.05,362.39,23.53,11.87
1173,1569845696,39.9207,-70.7643,44096699,0.10,600.78,23.53,11.74
1173,1569845696,39.9207,-70.7643,44096833,0.10,820.33,23.53,11.70
1173,1569845696,39.9207,-70.7643,44096949,0.10,1311.20,23.53,11.57
1173,1569845697,39.9207,-70.7643,44097083,0.14,1712.73,23.53,11.74
1173,1569845697,39.9207,-70.7643,44097199,0.14,1721.95,23.53,11.74
1173,1569845697,39.9207,-70.7643,44097333,0.18,1690.13,23.53,11.76
1173,1569845697,39.9207,-70.7643,44097383,0.18,1448.62,23.53,11.74
1173,1569845697,39.9207,-70.7643,44097516,0.18,764.92,23.53,11.76
1173,1569845697,39.9207,-70.7643,44097633,0.18,516.76,23.53,11.76
1173,1569845697,39.9207,-70.7643,44097766,0.09,414.95,23.53,11.70
1173,1569845697,39.9207,-70.7643,44097883,0.09,456.76,23.53,11.76
1173,1569845697,39.9207,-70.7643,44097949,0.09,487.66,23.53,11.74
1173,1569845698,39.9207,-70.7643,44098083,0.03,463.96,23.53,11.74
1173,1569845698,39.9207,-70.7643,44098199,0.03,452.80,23.53,11.76
1173,1569845698,39.9207,-70.7643,44098333,-0.04,487.11,23.53,11.63
1173,1569845698,39.9207,-70.7643,44098449,-0.04,484.04,23.53,11.61
1173,1569845698,39.9207,-70.7643,44098583,-0.10,424.79,23.53,11.76
1173,1569845698,39.9207,-70.7643,44098633,-0.10,595.32,23.53,11.76
1173,1569845698,39.9207,-70.7643,44098766,0.06,767.17,23.53,11.76
1173,1569845698,39.9207,-70.7643,44098883,0.06,726.53,23.53,11.76
1173,1569845699,39.9207,-70.7643,44099016,0.09,618.78,23.53,11.76
1173,1569845699,39.9207,-70.7643,44099133,0.09,588.00,23.53,11.74
1173,1569845699,39.9207,-70.7643,44099266,0.12,496.32,23.53,11.74
1173,1569845699,39.9207,-70.7643,44099333,0.12,450.13,23.53,11.74
1173,1569845699,39.9207,-70.7643,44099449,0.12,590.19,23.53,11.74
1173,1569845699,39.9207,-70.7643,44099583,0.20,742.14,23.53,11.74
1173,1569845699,39.9207,-70.7643,44099699,0.20,653.82,23.53,11.76
1173,1569845699,39.9207,-70.7643,44099833,0.22,677.67,23.53,11.76
1173,1569845699,39.9207,-70.7643,44099949,0.22,728.17,23.53,11.74
1173,1569845700,39.9207,-70.7643,44100016,0.22,709.64,23.53,11.74
1173,1569845700,39.9207,-70.7643,44100133,0.18,998.66,23.53,11.76
1173,1569845700,39.9207,-70.7643,44100266,0.18,1173.04,23.53,11.74
1173,1569845700,39.9207,-70.7643,44100399,0.12,1448.06,23.53,11.74
1173,1569845700,39.9207,-70.7643,44100516,0.12,1649.69,23.53,11.74
1173,1569845700,39.9207,-70.7643,44100633,0.06,1647.63,23.53,11.74
1173,1569845700,39.9207,-70.7643,44100699,0.06,1626.91,23.53,11.74
1173,1569845700,39.9207,-70.7643,44100833,0.06,1635.85,23.53,11.74
1173,1569845700,39.9207,-70.7643,44100966,0.06,985.18,23.53,11.76
1173,1569845701,39.9207,-70.7643,44101083,0.07,470.59,23.53,11.85
1173,1569845701,39.9207,-70.7643,44101199,0.07,490.82,23.53,11.74
1173,1569845701,39.9207,-70.7643,44101266,0.07,479.96,23.53,11.76
1173,1569845701,39.9207,-70.7643,44101383,0.05,506.78,23.53,11.74
1173,1569845701,39.9207,-70.7644,44101516,0.05,484.10,23.53,11.74
1173,1569845701,39.9207,-70.7644,44101633,0.05,468.01,23.53,11.87
1173,1569845701,39.9207,-70.7644,44101766,0.05,435.84,23.53,11.72
1173,1569845701,39.9207,-70.7644,44101883,0.05,436.01,23.53,11.74
1173,1569845701,39.9207,-70.7644,44101949,0.05,428.05,23.53,11.70
1173,1569845702,39.9207,-70.7644,44102083,0.17,395.28,23.53,11.72
1173,1569845702,39.9207,-70.7644,44102199,0.17,441.71,23.53,11.74
1173,1569845702,39.9207,-70.7644,44102333,0.17,412.00,23.53,11.85
1173,1569845702,39.9207,-70.7644,44102449,0.25,371.08,23.53,11.72
1173,1569845702,39.9207,-70.7643,44102583,0.25,425.68,23.53,11.63
1173,1569845702,39.9207,-70.7643,44102633,0.12,530.61,23.53,11.72
1173,1569845702,39.9207,-70.7643,44102766,0.12,561.10,23.53,11.74
1173,1569845702,39.9207,-70.7643,44102883,0.09,520.57,23.53,11.78
1173,1569845703,39.9207,-70.7643,44103016,0.09,441.35,23.53,11.72
1173,1569845703,39.9207,-70.7643,44103133,0.03,412.12,23.53,11.74
1173,1569845703,39.9207,-70.7643,44103199,0.03,424.68,23.53,11.74
1173,1569845703,39.9207,-70.7643,44103333,0.03,474.86,23.53,11.76
1173,1569845703,39.9207,-70.7643,44103449,-0.03,502.57,23.53,11.74
1173,1569845703,39.9207,-70.7643,44103583,-0.03,576.27,23.53,11.74
1173,1569845703,39.9207,-70.7643,44103699,0.06,593.63,23.53,11.72
1173,1569845703,39.9207,-70.7643,44103833,0.06,667.72,23.53,11.76
1173,1569845703,39.9207,-70.7643,44103883,0.04,688.01,23.53,11.76
1173,1569845704,39.9207,-70.7643,44104016,0.04,670.09,23.53,11.74
1173,1569845704,39.9207,-70.7643,44104133,0.11,654.95,23.53,11.74
1173,1569845704,39.9207,-70.7643,44104266,0.11,677.09,23.53,11.74
1173,1569845704,39.9207,-70.7643,44104383,0.16,599.37,23.53,11.76
1173,1569845704,39.9207,-70.7643,44104516,0.16,570.91,23.53,11.76
1173,1569845704,39.9207,-70.7643,44104583,0.16,592.42,23.53,11.76
1173,1569845704,39.9207,-70.7643,44104699,0.17,539.01,23.53,11.76
1173,1569845704,39.9207,-70.7643,44104849,0.17,432.84,23.53,11.74
1173,1569845704,39.9207,-70.7643,44104949,0.21,504.08,23.53,11.76
1173,1569845705,39.9207,-70.7643,44105083,0.21,535.75,23.53,11.76
1173,1569845705,39.9207,-70.7643,44105199,0.22,588.54,23.53,11.74
1173,1569845705,39.9207,-70.7643,44105266,0.22,598.65,23.53,11.74
1173,1569845705,39.9207,-70.7643,44105383,0.22,640.98,23.53,11.74
1173,1569845705,39.9207,-70.7643,44105516,0.15,663.58,23.53,11.78
1173,1569845705,39.9207,-70.7643,44105633,0.15,677.22,23.53,11.72
1173,1569845705,39.9207,-70.7643,44105766,0.04,1027.64,23.53,11.55
1173,1569845705,39.9207,-70.7643,44105883,0.04,1582.07,23.53,11.74
1173,1569845705,39.9207,-70.7643,44105949,-0.00,1655.60,23.53,11.82
1173,1569845706,39.9207,-70.7643,44106083,-0.00,1669.86,23.53,11.87
1173,1569845706,39.9207,-70.7643,44106199,0.08,1716.76,23.53,11.55
1173,1569845706,39.9207,-70.7643,44106333,0.08,1521.81,23.53,11.87
1173,1569845706,39.9207,-70.7643,44106449,0.20,1084.23,23.53,11.68
1173,1569845706,39.9207,-70.7643,44106516,0.20,874.76,23.53,11.72
1173,1569845706,39.9207,-70.7643,44106633,0.20,808.72,23.53,11.72
1173,1569845706,39.9207,-70.7643,44106766,0.30,799.76,23.53,11.76
1173,1569845706,39.9207,-70.7643,44106883,0.30,883.31,23.53,11.70
1173,1569845707,39.9207,-70.7643,44107016,0.30,1288.74,23.53,11.72
1173,1569845707,39.9207,-70.7643,44107133,0.30,1644.63,23.53,11.74
1173,1569845707,39.9207,-70.7643,44107199,0.23,1668.82,23.53,11.74
1173,1569845707,39.9207,-70.7643,44107333,0.23,1666.52,23.53,11.76
1173,1569845707,39.9207,-70.7643,44107449,0.23,1286.88,23.53,11.76
1173,1569845707,39.9207,-70.7643,44107583,0.14,681.72,23.53,11.89
1173,1569845707,39.9207,-70.7643,44107699,0.14,760.20,23.53,11.74
1173,1569845707,39.9207,-70.7643,44107833,0.06,744.55,23.53,11.76
1173,1569845707,39.9207,-70.7643,44107883,0.06,698.40,23.53,11.74
1173,1569845708,39.9207,-70.7643,44108016,0.04,731.69,23.53,11.74
1173,1569845708,39.9207,-70.7643,44108133,0.04,1127.45,23.53,11.76
1173,1569845708,39.9207,-70.7643,44108266,0.07,1588.07,23.53,11.72
1173,1569845708,39.9207,-70.7643,44108383,0.07,1728.37,23.53,11.74
1173,1569845708,39.9207,-70.7643,44108516,0.09,1729.93,23.53,11.76
1173,1569845708,39.9207,-70.7643,44108583,0.09,1754.28,23.53,11.74
1173,1569845708,39.9207,-70.7643,44108699,0.09,1751.73,23.53,11.74
Message Id[unsigned short|#],Timestamp[unsigned long|epoch],Voltage[float|V],Status[unsigned short|mask],Descent Status[signed char|#],Ascent Status[signed char|#],Pickup Status[signed char|#],Descent Continuity[unsigned char|#],Ascent Continuity[unsigned char|#],Pickup Continuity[unsigned char|#],Secondary Status[unsigned long|mask]
1076,1569845689,15.66,0,0,0,0,128,128,128,3846
1076,1569845694,15.67,0,0,0,0,128,128,128,3846
1076,1569845699,15.68,0,0,0,0,128,128,128,3846
1076,1569845704,15.66,0,0,0,0,128,128,128,3846
1076,1569845709,15.68,0,0,0,0,128,128,128,3846
1076,1569845714,15.66,0,0,0,0,128,128,128,3846
1076,1569845719,15.67,0,0,0,0,128,128,128,3846
1076,1569845724,15.68,0,0,0,0,128,128,128,3846
1076,1569845729,15.66,0,0,0,0,128,128,128,3846
1076,1569845734,15.65,0,0,0,0,128,128,128,3846
1076,1569845739,15.67,0,0,0,0,128,128,128,1798
1076,1569845744,15.67,0,0,0,0,128,128,128,1798
1076,1569845749,15.68,0,0,0,0,128,128,128,1798
1076,1569845754,15.67,0,0,0,0,128,128,128,1798
1076,1569845759,15.67,0,0,0,0,128,128,128,1798
1076,1569845764,15.67,0,0,0,0,128,128,128,1798
1076,1569845769,15.70,0,0,0,0,128,128,128,1798
1076,1569845774,15.67,0,0,0,0,128,128,128,1798
1076,1569845779,15.67,0,0,0,0,128,128,128,1798
1076,1569845784,15.68,0,0,0,0,128,128,128,1798
1076,1569845789,15.68,0,0,0,0,128,128,128,1798
1076,1569845794,15.67,0,0,0,0,128,128,128,1798
1076,1569845799,15.67,0,0,0,0,128,128,128,1798
1076,1569845804,15.67,0,0,0,0,128,128,128,1798
1076,1569845809,15.68,0,0,0,0,128,128,128,1798
1076,1569845814,15.65,0,0,0,0,128,128,128,1798
1076,1569845819,15.65,0,0,0,0,128,128,128,1798
1076,1569845824,15.66,0,0,0,0,128,128,128,1798
1076,1569845829,15.66,0,0,0,0,128,128,128,1798
1076,1569845834,15.68,0,0,0,0,128,128,128,1798
1076,1569845839,15.65,0,0,0,0,128,128,128,1798
1076,1569845844,15.67,0,0,0,0,128,128,128,1798
1076,1569845849,15.69,0,0,0,0,128,128,128,1798
1076,1569845854,15.67,0,0,0,0,128,128,128,1798
1076,1569845859,15.66,0,0,0,0,128,128,128,1798
1076,1569845864,15.68,0,0,0,0,128,128,128,1798
1076,1569845869,15.66,0,0,0,0,128,128,128,1798
1076,1569845874,15.69,0,0,0,0,128,128,128,1798
1076,1569845879,15.67,0,0,0,0,128,128,128,1798
1076,1569845884,15.66,0,0,0,0,128,128,128,1798
1076,1569845889,15.68,0,0,0,0,128,128,128,1798
1076,1569845894,15.68,0,0,0,0,128,128,128,1798
1076,1569845899,15.64,0,0,0,0,128,128,128,1798
1076,1569845904,15.66,0,0,0,0,128,128,128,1798
1076,1569845909,15.67,0,0,0,0,128,128,128,1798
1076,1569845914,15.65,0,0,0,0,128,128,128,1798
1076,1569845919,15.65,0,0,0,0,128,128,128,1798
1076,1569845924,15.65,0,0,0,0,128,128,128,1798
1076,1569845929,15.67,0,0,0,0,128,128,128,1798
1076,1569845934,15.69,0,0,0,0,128,128,128,1798
1076,1569845939,15.68,0,0,0,0,128,128,128,1798
1076,1569845944,15.69,0,0,0,0,128,128,128,1798
1076,1569845949,15.69,0,0,0,0,128,128,128,1798
1076,1569845954,15.67,0,0,0,0,128,128,128,1798
1076,1569845959,15.69,0,0,0,0,128,128,128,1798
1076,1569845964,15.66,0,0,0,0,128,128,128,1798
1076,1569845969,15.66,0,0,0,0,128,128,128,1798
1076,1569845974,15.65,0,0,0,0,128,128,128,1798
1076,1569845979,15.66,0,0,0,0,128,128,128,1798
1076,1569845984,15.66,0,0,0,0,128,128,128,1798
1076,1569845989,15.68,0,0,0,0,128,128,128,1798
1076,1569845994,15.68,0,0,0,0,128,128,128,1798
1076,1569845999,15.68,0,0,0,0,128,128,128,1798
1076,1569846004,15.67,0,0,0,0,128,128,128,1798
1076,1569846009,15.68,0,0,0,0,128,128,128,1798
1076,1569846014,15.67,0,0,0,0,128,128,128,1798
1076,1569846019,15.67,0,0,0,0,128,128,128,1798
1076,1569846024,15.65,0,0,0,0,128,128,128,1798
1076,1569846029,15.68,0,0,0,0,128,128,128,1798
1076,1569846034,15.66,0,0,0,0,128,128,128,1798
1076,1569846039,15.66,0,0,0,0,128,128,128,1798
1076,1569846044,15.68,0,0,0,0,128,128,128,1798
1076,1569846049,15.66,0,0,0,0,128,128,128,3846
1076,1569846054,15.64,0,0,0,0,128,128,128,3846
1076,1569846059,15.67,0,0,0,0,128,128,128,3858
1076,1569846064,15.67,0,0,0,0,128,128,128,3858
1076,1569846069,15.63,0,0,0,0,128,128,128,3858
1076,1569846074,15.66,0,0,0,0,128,128,128,3858
1076,1569846079,15.68,0,0,0,0,128,128,128,3858
1076,1569846084,15.64,0,0,0,0,128,128,128,3858
1076,1569846089,15.67,0,0,0,0,128,128,128,3858
1076,1569846094,15.65,0,0,0,0,128,128,128,3858
1076,1569846099,15.64,0,0,0,0,128,128,128,3858
1076,1569846104,15.67,0,0,0,0,128,128,128,3858
1076,1569846109,15.67,0,0,0,0,128,128,128,3858
1076,1569846114,15.66,0,0,0,0,128,128,128,3858
1076,1569846119,15.68,0,0,0,0,128,128,128,3858
1076,1569846124,15.67,0,0,0,0,128,128,128,3858
1076,1569846129,15.68,0,0,0,0,128,128,128,3858
1076,1569846134,15.65,0,0,0,0,128,128,128,3858
1076,1569846139,15.66,0,0,0,0,128,128,128,3858
1076,1569846144,15.67,0,0,0,0,128,128,128,3858
1076,1569846149,15.67,0,0,0,0,128,128,128,3858
1076,1569846154,15.69,0,0,0,0,128,128,128,3858
1076,1569846159,15.67,0,0,0,0,128,128,128,3858
1076,1569846164,15.64,0,0,0,0,128,128,128,3858
1076,1569846169,15.66,0,0,0,0,128,128,128,3858
1076,1569846174,15.66,0,0,0,0,128,128,128,3858
1076,1569846179,15.69,0,0,0,0,128,128,128,3858
1076,1569846184,15.65,0,0,0,0,128,128,128,3858
1076,1569846189,15.65,0,0,0,0,128,128,128,3858
1076,1569846194,15.67,0,0,0,0,128,128,128,3858
1076,1569846199,15.65,0,0,0,0,128,128,128,3858
1076,1569846204,15.69,0,0,0,0,128,128,128,3858
1076,1569846209,15.67,0,0,0,0,128,128,128,3858
1076,1569846214,15.67,0,0,0,0,128,128,128,3858
1076,1569846219,15.65,0,0,0,0,128,128,128,3858
1076,1569846224,15.67,0,0,0,0,128,128,128,3858
1076,1569846229,15.67,0,0,0,0,128,128,128,3858
1076,1569846234,15.66,0,0,0,0,128,128,128,3858
1076,1569846239,15.66,0,0,0,0,128,128,128,3858
1076,1569846244,15.65,0,0,0,0,128,128,128,3858
1076,1569846249,15.68,0,0,0,0,128,128,128,3858
1076,1569846254,15.64,0,0,0,0,128,128,128,3858
1076,1569846259,15.67,0,0,0,0,128,128,128,3858
1076,1569846264,15.67,0,0,0,0,128,128,128,3858
1076,1569846269,15.68,0,0,0,0,128,128,128,3858
1076,1569846274,15.66,0,0,0,0,128,128,128,3858
1076,1569846279,15.67,0,0,0,0,128,128,128,3858
1076,1569846284,15.65,0,0,0,0,128,128,128,3858
1076,1569846289,15.65,0,0,0,0,128,128,128,3858
1076,1569846294,15.67,0,0,0,0,128,128,128,3858
1076,1569846299,15.68,0,0,0,0,128,128,128,3858
1076,1569846304,15.65,0,0,0,0,128,128,128,3858
1076,1569846309,15.70,0,0,0,0,128,128,128,3858
1076,1569846314,15.69,0,0,0,0,128,128,128,3858
1076,1569846319,15.66,0,0,0,0,128,128,128,3858
1076,1569846324,15.66,0,0,0,0,128,128,128,3858
1076,1569846329,15.66,0,0,0,0,128,128,128,3858
1076,1569846334,15.65,0,0,0,0,128,128,128,3858
1076,1569846339,15.68,0,0,0,0,128,128,128,3858
1076,1569846344,15.68,0,0,0,0,128,128,128,3858
1076,1569846349,15.62,0,0,0,0,128,128,128,3858
1076,1569846354,15.69,0,0,0,0,128,128,128,3858
1076,1569846359,15.67,0,0,0,0,128,128,128,3846
1076,1569846364,15.67,0,0,0,0,128,128,128,3846
1076,1569846369,15.64,0,0,0,0,128,128,128,3846
1076,1569846374,15.67,0,0,0,0,128,128,128,3846
1076,1569846379,15.66,0,0,0,0,128,128,128,1798
1076,1569846384,15.67,0,0,0,0,128,128,128,1798
1076,1569846389,15.66,0,0,0,0,128,128,128,1798
1076,1569846394,15.65,0,0,0,0,128,128,128,3846
1076,1569846399,15.67,0,0,0,0,128,128,128,3846
1076,1569846404,15.67,0,0,0,0,128,128,128,3846
1076,1569846409,15.64,0,0,0,0,128,128,128,3846
1076,1569846414,15.64,0,0,0,0,128,128,128,3846
1076,1569846419,15.68,0,0,0,0,128,128,128,3846
1076,1569846424,15.66,0,0,0,0,128,128,128,3846
1076,1569846429,15.68,0,0,0,0,128,128,128,3846
1076,1569846434,15.68,0,0,0,0,128,128,128,3846
1076,1569846439,15.68,0,0,0,0,128,128,128,3846
1076,1569846444,15.65,0,0,0,0,128,128,128,1798
1076,1569846449,15.67,0,0,0,0,128,128,128,1798
1076,1569846454,15.67,0,0,0,0,128,128,128,1798
1076,1569846459,15.65,0,0,0,0,128,128,128,1798
1076,1569846464,15.67,0,0,0,0,128,128,128,1798
1076,1569846469,15.67,0,0,0,0,128,128,128,1798
1076,1569846474,15.69,0,0,0,0,128,128,128,1798
1076,1569846479,15.65,0,0,0,0,128,128,128,1798
1076,1569846484,15.68,0,0,0,0,128,128,128,1798
1076,1569846489,15.66,0,0,0,0,128,128,128,1798
1076,1569846494,15.70,0,0,0,0,128,128,128,1798
1076,1569846499,15.68,0,0,0,0,128,128,128,1798
1076,1569846504,15.67,0,0,0,0,128,128,128,1798
1076,1569846509,15.65,0,0,0,0,128,128,128,1798
1076,1569846514,15.65,0,0,0,0,128,128,128,1798
1076,1569846519,15.66,0,0,0,0,128,128,128,1798
1076,1569846524,15.68,0,0,0,0,128,128,128,1798
1076,1569846529,15.64,0,0,0,0,128,128,128,1798
1076,1569846534,15.67,0,0,0,0,128,128,128,1798
1076,1569846539,15.68,0,0,0,0,128,128,128,1798
1076,1569846544,15.66,0,0,0,0,128,128,128,1798
1076,1569846549,15.67,0,0,0,0,128,128,128,1798
1076,1569846554,15.65,0,0,0,0,128,128,128,1798
1076,1569846559,15.69,0,0,0,0,128,128,128,1798
1076,1569846564,15.66,0,0,0,0,128,128,128,1798
1076,1569846569,15.64,0,0,0,0,128,128,128,1798
1076,1569846574,15.64,0,0,0,0,128,128,128,1798
1076,1569846579,15.66,0,0,0,0,128,128,128,1798
1076,1569846584,15.68,0,0,0,0,128,128,128,1798
1076,1569846589,15.67,0,0,0,0,128,128,128,1798
1076,1569846594,15.68,0,0,0,0,128,128,128,1798
1076,1569846599,15.66,0,0,0,0,128,128,128,1798
1076,1569846604,15.64,0,0,0,0,128,128,128,1798
1076,1569846609,15.64,0,0,0,0,128,128,128,1798
1076,1569846614,15.65,0,0,0,0,128,128,128,1798
1076,1569846619,15.66,0,0,0,0,128,128,128,1798
1076,1569846624,15.68,0,0,0,0,128,128,128,1798
1076,1569846629,15.68,0,0,0,0,128,128,128,1798
1076,1569846634,15.67,0,0,0,0,128,128,128,1798
1076,1569846639,15.68,0,0,0,0,128,128,128,1798
1076,1569846644,15.67,0,0,0,0,128,128,128,1798
1076,1569846649,15.67,0,0,0,0,128,128,128,1798
1076,1569846654,15.67,0,0,0,0,128,128,128,1798
1076,1569846659,15.65,0,0,0,0,128,128,128,1798
1076,1569846664,15.63,0,0,0,0,128,128,128,1798
1076,1569846669,15.67,0,0,0,0,128,128,128,1798
1076,1569846674,15.65,0,0,0,0,128,128,128,1798
1076,1569846679,15.64,0,0,0,0,128,128,128,1798
1076,1569846684,15.68,0,0,0,0,128,128,128,1798
Message Id[unsigned short|#],Filename[signed char(13)|ascii],Line[short|#],Timestamp[unsigned long|epoch],Message[signed char(200)|ascii]
1001,"selftest.cpp",877,1569845689,"Self test failure attitude (tilt),  [01000010] pausing mission"
1001,"selftest.cpp",877,1569845702,"Self test failure attitude (tilt),  [01000010] pausing mission"
1001,"selftest.cpp",877,1569845702,"Self test failure attitude (tilt),  [01000010] pausing mission"
1001,"selftest.cpp",877,1569845704,"Self test failure attitude (tilt),  [01000010] pausing mission"
1001,"selftest.cpp",877,1569845704,"Self test failure attitude (tilt),  [01000010] pausing mission"
1001,"selftest.cpp",877,1569845709,"Self test failure attitude (tilt),  [01000010] pausing mission"
1001,"selftest.cpp",877,1569845709,"Self test failure attitude (tilt),  [01000010] pausing mission"
1001,"selftest.cpp",877,1569845709,"Self test failure attitude (tilt),  [01000010] pausing mission"
1001,"selftest.cpp",877,1569845709,"Self test failure attitude (tilt),  [01000010] pausing mission"
1001,"selftest.cpp",1238,1569845710,"Vehicle stuck on surface; attempting to drive it down"
1001,"/mot_tri.cpp",515,1569845717,"Thruster is current limiting (1)"
1001,"/mot_tri.cpp",515,1569845719,"Thruster is current limiting (32)"
1001,"/mot_tri.cpp",515,1569845724,"Thruster is current limiting (55)"
1001,"/mot_tri.cpp",515,1569845724,"Thruster is current limiting (64)"
1001,"/mot_tri.cpp",515,1569845726,"Thruster is current limiting (80)"
1001,"/mot_tri.cpp",515,1569845727,"Thruster is current limiting (96)"
1001,"/mot_tri.cpp",515,1569845729,"Thruster is current limiting (128)"
1001,"/mot_tri.cpp",515,1569845731,"Thruster is current limiting (134)"
1001,"/mot_tri.cpp",515,1569845734,"Thruster is current limiting (160)"
1001,"/mot_tri.cpp",536,1569845736,"thruster motor fault (0x41): Over current (peak),over current (ave),"
1001,"selftest.cpp",877,1569845736,"Self test failure thruster,  [01020080] pausing mission"
1001,"selftest.cpp",877,1569845736,"Self test failure thruster,  [01020080] pausing mission"
1001,"selftest.cpp",877,1569845736,"Self test failure thruster,  [01020080] pausing mission"
1001,"selftest.cpp",877,1569845736,"Self test failure thruster,  [01020080] pausing mission"
1001,"selftest.cpp",877,1569845736,"Self test failure thruster,  [01020080] pausing mission"
1001,"selftest.cpp",877,1569845736,"Self test failure thruster,  [01020080] pausing mission"
1001,"selftest.cpp",877,1569845736,"Self test failure thruster,  [01020080] pausing mission"
1001,"selftest.cpp",877,1569845736,"Self test failure thruster,  [01020080] pausing mission"
1001,"selftest.cpp",877,1569845736,"Self test failure thruster,  [01020080] pausing mission"
1001,"selftest.cpp",877,1569845736,"Self test failure thruster,  [01020080] pausing mission"
1001,"selftest.cpp",877,1569845736,"Self test failure thruster,  [01020080] pausing mission"
1001,"selftest.cpp",877,1569845736,"Self test failure thruster,  [01020080] pausing mission"
1001,"selftest.cpp",877,1569845736,"Self test failure thruster,  [01020080] pausing mission"
1001,"selftest.cpp",877,1569845736,"Self test failure thruster,  [01020080] pausing mission"
1001,"selftest.cpp",877,1569845737,"Self test failure thruster,  [01020080] pausing mission"
