Message Id[unsigned short|#],Timestamp[unsigned long|epoch],Latitude[double|°],Longitude[double|°],Mission Time[unsigned long|tod],Depth[float|Meters],Heading[float|°],Pitch[float|°],Roll[float|°],Altitude[float|Meters],Altitude Track Range Beam 1[float|Meters],Altitude Track Range Beam 2[float|Meters],Altitude Track Range Beam 3[float|Meters],Altitude Track Range Beam 4[float|Meters],Forward Velocity[float|m/s],Starboard Velocity[float|m/s],Vertical Velocity[float|m/s],Error Velocity[float|mm/s],Temperature[float|°C],Ensemble[unsigned short|#],Binary Velocity Data 1[short|mm/s],Binary Velocity Data 2[short|mm/s],Binary Velocity Data 3[short|mm/s],Binary Velocity Data 4[short|mm/s],Coordinates Transformation[short|mask],Average Current[float|m/s],Average Direction[float|°]
1141,1618357038,40.1984,-71.1035,85038049,0.01,31.46,2.46,4.63,0.00,0.00,0.00,0.00,0.00,-32.77,-32.77,-32.77,-32.77,8.70,126,275,-318,100,-39,23,0.00,0.00
1141,1618357039,40.1984,-71.1035,85039366,0.02,29.56,0.13,-1.00,0.00,0.00,0.00,0.00,0.00,-32.77,-32.77,-32.77,-32.77,8.70,127,-677,-99,183,40,-32745,0.00,0.00
1141,1618357040,40.1984,-71.1035,85040616,-0.05,27.94,-1.14,-4.20,0.00,0.00,0.00,0.00,0.00,-32.77,-32.77,-32.77,-32.77,8.68,128,175,85,49,79,23,0.00,0.00
Message Id[unsigned short|#],Timestamp[unsigned long|epoch],Latitude[double|°],Longitude[double|°],Mission Time[unsigned long|tod],Depth[float|Meters],Sensor Voltage[float|V],Temperature[float|°C],Supply Voltage[float|V]
1173,1618357037,40.1984,-71.1035,85037799,-0.03,4.74,9.42,11.74
1173,1618357037,40.1984,-71.1035,85037933,-0.03,4.98,9.84,11.74
1173,1618357038,40.1984,-71.1035,85038049,0.01,4.74,9.84,11.68
Message Id[unsigned short|#],Timestamp[unsigned long|epoch],Voltage[float|V],Status[unsigned short|mask],Descent Status[signed char|#],Ascent Status[signed char|#],Pickup Status[signed char|#],Descent Continuity[unsigned char|#],Ascent Continuity[unsigned char|#],Pickup Continuity[unsigned char|#],Secondary Status[unsigned long|mask]
1076,1618357040,15.63,0,0,0,0,128,128,128,3846
1076,1618357045,15.62,0,0,0,0,128,128,128,3846
1076,1618357050,15.64,0,0,0,0,128,128,128,3846
Message Id[unsigned short|#],Filename[signed char(13)|ascii],Line[short|#],Timestamp[unsigned long|epoch],Message[signed char(200)|ascii]
1001,"selftest.cpp",1238,1618357062,"Vehicle stuck on surface; attempting to drive it down"
1001,"/mot_tri.cpp",515,1618357064,"Thruster is current limiting (1)"
1001,"/mot_tri.cpp",515,1618357066,"Thruster is current limiting (32)"
1001,"/mot_tri.cpp",515,1618357069,"Thruster is current limiting (54)"
1001,"irid_veh.cpp",884,1618377093,"No response from Iridium to command ATH0"
1001,"irid_veh.cpp",1431,1618377093,"Iridium Call hangup: ir_con_state=0 "
1001,"D/eboard.cpp",902,1618377093,"Message from emergency board <Overrun
>"
1001,"D/eboard.cpp",902,1618377093,"Message from emergency board <k: value NAN
>"
1001,"D/eboard.cpp",1078,1618377094,"EBoard - Status does not match goal <0x0F02, actual 0x0F12>"
1001,"selftest.cpp",1238,1618377100,"Vehicle stuck on surface; attempting to drive it down"
Message Id[unsigned short|#],Timestamp[unsigned long|epoch],Latitude[double|°],Longitude[double|°],Heading[float|°],Fix Age[short|secs],Flags[signed char|mask],GPS Fix Status[signed char|mask],Satellites In View[signed char|#],Satellites Used[signed char|#],Speed Over Ground[float|m/s],Course Over Ground[float|m/s],Position Error[float|dop],Horizontal Error[float|dop],Veritical Error[float|dop],Year[signed char|#],Month[signed char|#],Day[signed char|#],Hour[signed char|#],Minute[signed char|#],Second[signed char|#],Fix Status[short|mask],Satellite Data 1 Space Vehicle Id[signed char|#],Satellite Data 1 Elevation[signed char|°],Satellite Data 1 Azimuth[short|°],Satellite Data 1 Signal-Noise-Ratio[signed char|#],Satellite Data 1 Flags[signed char|mask],Satellite Data 2 Space Vehicle Id[signed char|#],Satellite Data 2 Elevation[signed char|°],Satellite Data 2 Azimuth[short|°],Satellite Data 2 Signal-Noise-Ratio[signed char|#],Satellite Data 2 Flags[signed char|mask],Satellite Data 3 Space Vehicle Id[signed char|#],Satellite Data 3 Elevation[signed char|°],Satellite Data 3 Azimuth[short|°],Satellite Data 3 Signal-Noise-Ratio[signed char|#],Satellite Data 3 Flags[signed char|mask],Satellite Data 4 Space Vehicle Id[signed char|#],Satellite Data 4 Elevation[signed char|°],Satellite Data 4 Azimuth[short|°],Satellite Data 4 Signal-Noise-Ratio[signed char|#],Satellite Data 4 Flags[signed char|mask],Satellite Data 5 Space Vehicle Id[signed char|#],Satellite Data 5 Elevation[signed char|°],Satellite Data 5 Azimuth[short|°],Satellite Data 5 Signal-Noise-Ratio[signed char|#],Satellite Data 5 Flags[signed char|mask],Satellite Data 6 Space Vehicle Id[signed char|#],Satellite Data 6 Elevation[signed char|°],Satellite Data 6 Azimuth[short|°],Satellite Data 6 Signal-Noise-Ratio[signed char|#],Satellite Data 6 Flags[signed char|mask],Satellite Data 7 Space Vehicle Id[signed char|#],Satellite Data 7 Elevation[signed char|°],Satellite Data 7 Azimuth[short|°],Satellite Data 7 Signal-Noise-Ratio[signed char|#],Satellite Data 7 Flags[signed char|mask],Satellite Data 8 Space Vehicle Id[signed char|#],Satellite Data 8 Elevation[signed char|°],Satellite Data 8 Azimuth[short|°],Satellite Data 8 Signal-Noise-Ratio[signed char|#],Satellite Data 8 Flags[signed char|mask],Satellite Data 9 Space Vehicle Id[signed char|#],Satellite Data 9 Elevation[signed char|°],Satellite Data 9 Azimuth[short|°],Satellite Data 9 Signal-Noise-Ratio[signed char|#],Satellite Data 9 Flags[signed char|mask],Satellite Data 10 Space Vehicle Id[signed char|#],Satellite Data 10 Elevation[signed char|°],Satellite Data 10 Azimuth[short|°],Satellite Data 10 Signal-Noise-Ratio[signed char|#],Satellite Data 10 Flags[signed char|mask],Satellite Data 11 Space Vehicle Id[signed char|#],Satellite Data 11 Elevation[signed char|°],Satellite Data 11 Azimuth[short|°],Satellite Data 11 Signal-Noise-Ratio[signed char|#],Satellite Data 11 Flags[signed char|mask],Satellite Data 12 Space Vehicle Id[signed char|#],Satellite Data 12 Elevation[signed char|°],Satellite Data 12 Azimuth[short|°],Satellite Data 12 Signal-Noise-Ratio[signed char|#],Satellite Data 12 Flags[signed char|mask]
1055,1618357037,40.1984,-71.1035,31.13,1,11,0,10,8,0.62,262.30,1.30,1.00,0.90,21,4,13,23,37,19,10,2,61,305,42,1,4,14,49,42,1,5,20,216,42,1,6,62,37,44,1,9,27,81,40,1,12,43,280,43,1,17,29,124,39,1,19,51,116,40,1,23,8,39,0,0,25,3,330,0,0,0,0,0,0,0,0,0,0,0,0
1055,1618357038,40.1984,-71.1035,28.15,2,11,0,10,8,0.31,241.00,1.30,1.00,0.90,21,4,13,23,37,20,10,2,61,305,42,1,4,14,49,42,1,5,20,216,42,1,6,62,37,43,1,9,27,81,41,1,12,43,280,43,1,17,29,124,38,1,19,51,116,41,1,23,8,39,0,0,25,3,330,0,0,0,0,0,0,0,0,0,0,0,0
1055,1618357039,40.1984,-71.1035,27.92,3,11,0,10,8,0.36,232.80,1.30,1.00,0.90,21,4,13,23,37,21,10,2,61,305,41,1,4,14,49,42,1,5,20,216,42,1,6,62,37,43,1,9,27,81,34,1,12,43,280,44,1,17,29,124,39,1,19,51,116,41,1,23,8,39,0,0,25,3,330,0,0,0,0,0,0,0,0,0,0,0,0
Message Id[unsigned short|#],Timestamp[unsigned long|epoch],Latitude[double|°],Longitude[double|°],Mission Time[unsigned long|tod],Depth[float|Meters],Range Setting[short|Meters],Pitch[float|°],Look Down Angle[float|°],Altitude[float|Meters],Sonar Range[float|Meters],Roll[float|°],Sonar Range Minimum[float|Meters],Estimated Range[float|m/s],Estimated Rate[float|m/s],Obstacle Range-Rate Minimum[float|m/s],Obstacle Range Maximum[float|Meters],Obstacle Range Critical[float|Meters],Obstacle Range-Rate Critical[float|m/s],Pings[unsigned long|#],Status[unsigned char|mask],Median Filter Range[float|Meters]
1102,1618357038,40.1984,-71.1035,85038049,0.01,30,2.46,25.00,0.00,0.00,4.63,3.30,14.43,-0.26,-1.70,27.00,5.00,-0.70,404,0,14.04
1102,1618357038,40.1984,-71.1035,85038433,0.08,30,3.04,25.00,0.00,0.00,6.64,3.30,14.43,-0.26,-1.70,27.00,5.00,-0.70,405,0,14.04
1102,1618357038,40.1984,-71.1035,85038799,0.07,30,2.20,25.00,0.00,0.00,2.64,3.30,14.43,-0.26,-1.70,27.00,5.00,-0.70,406,0,14.04
Message Id[unsigned short|#],Timestamp[unsigned long|epoch],Source[short|^],Wrong Start Character[long|#],Message Too Long[long|#],Message Too Long 2[long|#],Payload Too Long[long|#],Payload Too Short[long|#],Checksum Error[long|#],Good Messages[long|#],Attempts[short|#],Connection State[short|mask],Time Until Hang-Up[long|secs],Between Calls[unsigned short|mins]
1087,1618357601,0,0,0,0,0,0,0,0,1,5,300,5
1087,1618357602,0,0,0,0,0,0,0,0,1,5,298,5
1087,1618357603,0,0,0,0,0,0,0,0,1,5,297,5
Message Id[unsigned short|#],Timestamp[unsigned long|epoch],Latitude[double|°],Longitude[double|°],Mission Time[unsigned long|tod],Depth[float|Meters],Conductivity[float|mS/cm],Temperature[float|°C],Salinity[float|PSS-78],Sound Speed[float|m/s],Pressure[float|dBars]
1107,1618357037,40.1984,-71.1035,85037799,-0.03,34.73,8.51,32.93,1481.82,0.00
1107,1618357038,40.1984,-71.1035,85038000,0.01,34.73,8.51,32.93,1481.82,0.01
1107,1618357038,40.1984,-71.1035,85038249,0.08,34.73,8.51,32.93,1481.83,0.08
Message Id[unsigned short|#],Timestamp[unsigned long|epoch],Latitude[double|°],Longitude[double|°],Depth[float|Meters],Raw Value[short|#],Oil Level[float|%],Mission Time[unsigned long|tod],Oil Location[unsigned char|^]
1075,1618357047,40.1984,-71.1035,0.02,248,82.49,85047499,0
1075,1618357057,40.1983,-71.1036,0.17,245,81.48,85057549,0
1075,1618357067,40.1985,-71.1035,0.16,246,81.82,85067616,0
Message Id[unsigned short|#],Timestamp[unsigned long|epoch],Latitude[float|°],Longitude[float|°],Mission Time[unsigned long|tod],Depth[float|Meters],Salinity[float|PSS-78],Model[short|#],Serial[short|#],Concentration[float|uM],Saturation[float|%],Temperature[float|°C],Calibrated Phase[float|°],B Phase[float|°],R Phase[float|°],B Amp[float|mV],B Pot[float|mV],R Amp[float|mV],Raw Temperature[float|mV],Calculated Concentration[float|uM],Calculated Saturation[float|%],External Temperature[float|°C]
1109,1618357038,40.20,-71.10,85038116,0.01,32.93,4330,2901,366.14,100.28,8.54,33.30,34.88,39.64,4.76,670.90,889.90,544.00,0.00,0.00,0.00
1109,1618357039,40.20,-71.10,85039116,0.05,19.03,4330,2901,366.13,100.28,8.54,33.30,34.88,39.64,4.76,670.90,890.00,544.00,0.00,0.00,0.00
1109,1618357040,40.20,-71.10,85040116,-0.03,32.93,4330,2901,366.04,100.26,8.54,33.30,34.88,39.64,4.76,670.90,889.90,543.90,0.00,0.00,0.00
Message Id[unsigned short|#],Timestamp[unsigned long|epoch],Latitude[double|°],Longitude[double|°],Mission Time[unsigned long|tod],Depth[float|Meters],Sample Time[double|msecs],Nitrate Concentration[float|uMol/L],Nitrogen in Nitrage[float|mg/L],Spectral Average of Last Dark Frame[unsigned short|#],Spectrometer Temperature[float|°C],Lamp State[bool|^],Lamp Temperature[float|°C],Cumulative Lamp On-Time[unsigned long|secs],Relative Humidity[float|%],Input Voltage[float|V],Lamp Voltage[float|V],Internal Voltage[float|V],Main Current[float|mA]
1174,1618357052,40.1983,-71.1035,85052933,0.17,23.6138,0.00,0.00,0,8.69,false,8.63,191676,0.00,12.05,0.11,4.99,58.98
1174,1618357055,40.1983,-71.1036,85055000,0.10,23.6143,-1.87,-0.03,716,8.69,true,8.63,191677,0.00,11.75,12.00,5.00,624.18
1174,1618357055,40.1983,-71.1036,85055933,0.19,23.6145,-0.64,-0.01,716,8.69,true,8.63,191678,0.00,11.75,11.99,4.99,632.74
Message Id[unsigned short|#],Flags[signed char|mask],Battery Index[signed char|#],Battery Count[signed char|#],Address[signed char|mask],Voltage[unsigned short|mV],End of Discharge[short|mV],Average Current[short|mA],Temperature 1/10th[unsigned short|°K],Full Charge Capacity[unsigned short|mAh],Remaining Capacity[unsigned short|mAh],Desired Charge Rate[unsigned short|mA],Serial[unsigned short|#],Battery Status[unsigned short|mask],Battery Flags [unsigned short|mask],Cycle Count[unsigned short|#],Timestamp[unsigned long|epoch],Available Power[float|W],Temperature[float|°C],Pressure[short|mbars],PIC Charge Value[unsigned char|#],PIC Balance Enabled[unsigned char|mask],PIC FET State[unsigned char|mask],PIC Faults[unsigned char|mask],PIC Cell Voltage 1[unsigned short|V],PIC Cell Voltage 2[unsigned short|V],PIC Cell Voltage 3[unsigned short|V],PIC Cell Voltage 4[unsigned short|V],PIC Cell Voltage 5[unsigned short|V],PIC Cell Voltage 6[unsigned short|V],PIC Cell Voltage 7[unsigned short|V],Battery Temperature[float|°K]
1071,0,3,20,3,28432,-25000,-86,2825,20378,18741,0,10863,192,14848,59,1618357039,490.57,25.00,0,3,0,3,0,40739,40745,40704,40691,40715,40712,40673,11.35
1071,0,8,20,11,28441,-25000,-86,2823,20044,18489,0,10849,192,14848,53,1618357039,484.10,25.00,0,3,0,3,0,40705,40742,40711,40717,40754,40743,40710,11.65
1071,0,13,20,19,28485,-25000,-86,2830,18945,17820,0,11730,192,14848,58,1618357039,467.39,25.00,0,3,0,3,0,40702,40708,40655,40687,40714,40705,40717,11.15
Message Id[unsigned short|#],Timestamp[unsigned long|epoch],Fin Count[signed char|#],Pitch Position[signed char|%],Rudder Position[signed char|%],Roll Position[signed char|%],Pitch Command[float|°],Rudder Command[float|°],Roll Command[float|°],Command Data 1[float|°],Position Data 1[float|%],Command Data 2[float|°],Position Data 2[float|%],Command Data 3[float|°],Position Data 3[float|%],Command Data 4[float|°],Position Data 4[float|%],Command Data 5[float|°],Position Data 5[float|%],Command Data 6[float|°],Position Data 6[float|%],Yaw Translation Command[float|°],Depth Translation Command[float|°],Yaw Translation Position[signed char|%],Depth Translation Position[signed char|%]
1089,1618357037,3,-66,67,0,-100.00,100.00,0.00,-66.67,-67.25,100.00,100.00,-33.33,-32.50,0.00,0.00,0.00,0.00,0.00,0.00,0.00,0.00,0,0
1089,1618357038,3,-99,0,0,-100.00,0.00,0.00,0.00,1.50,100.00,99.75,-100.00,-98.75,0.00,0.00,0.00,0.00,0.00,0.00,0.00,0.00,0,0
1089,1618357039,3,-99,0,0,-100.00,0.00,0.00,0.00,0.25,100.00,99.75,-100.00,-99.25,0.00,0.00,0.00,0.00,0.00,0.00,0.00,0.00,0,0
Message Id[unsigned short|#],Timestamp[unsigned long|epoch],Software Version[unsigned char|#],Temperature[float|°C],Heading Rate[float|°],Pressure[float|mbars],Depth[float|Meters],Depth Goal[float|Meters],OBS[float|n/a],Voltage[float|V],Current[float|A],GFI[float|%],Pitch[float|°],Pitch Goal[float|°],Roll[float|°],Thruster[short|RPM],Thruster Goal[short|RPM],Compass True Heading[float|°],Heading Goal[float|°],Mission Time[unsigned long|tod],Days Since 1970[unsigned short|#],Latitude[double|°],Longitude[double|°],DR Latitude[double|°],DR Longitude[double|°],Goal Latitude[double|°],Goal Longitude[double|°],Estimated Velocity[float|m/s],Heading Offset[float|°],Flags[short|mask],Thruster Command[signed char|#],Pitch Command[signed char|#],Rudder Command[signed char|#],Pitch Fin Position[signed char|#],Rudder Fin Position[signed char|#],Total Objectives[unsigned char|#],Current Objective[unsigned char|#],CPU Usage[unsigned char|%],Objective Index[unsigned char|%],Leg Number[unsigned short|%],Spare Slider[float|#],Roll Rate[float|°/s],Pitch Rate[float|°/s],Faults[unsigned long|mask],Navigation Mode[unsigned char|state],Secondary Faults[unsigned short|mask]
1000,1618357037,22,14.12,1.01,690.85,-0.03,0.00,0.00,28.23,1.70,0.00,1.35,0.00,-3.61,119,600,30.92,0.00,85037799,18730,40.1984,-71.1035,40.1997,-71.1018,40.2050,-71.0950,0.05,0.00,11328,10,-100,100,-66,67,15,2,100,14,1,0.00,27.06,2.43,16777216,1,68
1000,1618357038,22,14.10,-2.96,690.85,0.07,0.00,0.00,28.23,1.60,0.00,2.39,0.00,3.27,119,0,29.87,0.00,85038799,18730,40.1984,-71.1035,40.1997,-71.1018,40.2050,-71.0950,0.26,0.00,11328,0,-100,0,-99,0,15,2,3,14,1,0.00,-9.80,-3.50,16777216,1,68
1000,1618357039,22,14.17,-0.62,690.85,-0.03,0.00,0.00,28.24,1.54,0.00,-0.44,0.00,-1.80,0,0,27.61,0.00,85039799,18730,40.1984,-71.1035,40.1997,-71.1018,40.2050,-71.0950,0.14,0.00,11328,0,-100,0,-99,0,15,2,3,14,1,0.00,-1.29,-0.51,16777216,1,68
Message Id[unsigned short|#],Timestamp[unsigned long|epoch],Device Id[signed char|#],Device Count[signed char|#],Parameter Name[signed char(17)|ascii],Parameter Unit[signed char(17)|ascii],Parameter Id[unsigned char|#],ECO Data Offset[unsigned char|#],HTML Plot[unsigned char|^],Type[signed char|^],MX[float|#],B[float|#],Sensor Name[signed char(12)|ascii]
1117,0,0,1,"Ref 700","Counts",0,0,0,0,1.00,0.00,"ECO Triplet"
1117,0,0,1,"Sig 700","Counts",1,1,0,0,1.00,0.00,"ECO Triplet"
1117,0,0,1,"Beta700","ug/liter",2,1,0,1,0.02,39.00,"ECO Triplet"
1117,0,0,1,"Ref CHL","Counts",3,2,0,0,1.00,0.00,"ECO Triplet"
1117,0,0,1,"Sig CHL","Counts",4,3,0,0,1.00,0.00,"ECO Triplet"
1117,0,0,1,"Chlorophyll A","ug/liter",5,3,0,1,0.01,48.00,"ECO Triplet"
1117,0,0,1,"Ref CDOM","Counts",6,4,0,0,1.00,0.00,"ECO Triplet"
1117,0,0,1,"Sig CDOM","Counts",7,5,0,0,1.00,0.00,"ECO Triplet"
1117,0,0,1,"CDOM","ppb",8,5,0,1,0.09,49.00,"ECO Triplet"
Message Id[unsigned short|#],Timestamp[unsigned long|epoch],Latitude[double|°],Longitude[double|°],Mission Time[unsigned long|tod],Device Id[signed char|#],Device Count[signed char|#],Depth[float|Meters],Version[signed char|#],Parameter Id 0[float|#],Parameter Id 1[float|#],Parameter Id 2[float|#],Parameter Id 3[float|#],Parameter Id 4[float|#],Parameter Id 5[float|#],Parameter Id 6[float|#],Parameter Id 7[float|#],Parameter Id 8[float|#],Parameter Id 9[float|#]
1118,1618357038,40.1984,-71.1035,85038683,0,1,0.10,0,700.00,183.00,3.47,695.00,149.00,1.21,460.00,65.00,1.45,0.00
1118,1618357039,40.1984,-71.1035,85039799,0,1,-0.03,0,700.00,185.00,3.52,695.00,153.00,1.26,460.00,63.00,1.27,696401.06
1118,1618357040,40.1984,-71.1035,85040933,0,1,-0.06,0,700.00,184.00,3.49,695.00,152.00,1.25,460.00,64.00,1.36,696401.06
